콘텐츠아이디,콘텐츠분류,제목,언어,타이틀,연관콘텐츠,지번주소,도로명주소,위도,경도,탐나오연동여부,평점,소셜네트워크주소,조회수,외부검색어,좋아요수,리뷰수,북마크수,일정등록수,다녀왔어요수,웹사용여부,모바일사용여부,공개여부,작성상태,사용여부,승인일자,영문웹사용여부,중문웹사용여부,일문웹사용여부,영문작성상태,중문작성상태,일문작성상태,영문공개여부,중문공개여부,일문공개여부,영문모바일사용여부,중문모바일사용여부,일문모바일사용여부,영문승인일시,중문승인일시,일문승인일시,등록자,등록일시,수정자,수정일시,소셜네트워크공유수,인기점수,트립어드바이저코드,우편번호,템플릿여부,번역요청일시,영문번역요청일시,중문번역요청일시,일문번역요청일시,페이지검색어자동여부,영문페이지검색어자동여부,중문페이지검색어자동여부,일문페이지검색어자동여부,사진공유수,번체웹사용여부,말레이어웹사용여부,번체작성상태,말레이어작성상태,번체공개여부,말레이어공개여부,번체모바일사용여부,말어모바일사용여부,번체승인일시,말레이어승인일시,번체번역요청일시,말레이어번역요청일시,번체검색어자동여부,말레이어검색어자동여부
CNTS_000000000019943,음식점,웅스키친,국문,웅스키친,,제주특별자치도 제주시 이호2동 116-3,제주특별자치도 제주시 대동길 17-1,33.4930736,126.4637705,y,5,,5864,,0,9,36,0,0,y,y,y,y,y,2019-10-02 17:34,y,y,y,m,m,m,y,y,y,y,y,y,,,,anonymous,2016-10-31,anonymous,2025-03-05,0,11773,,63355,n,2016-10-31,2016-10-31,2016-10-31,2016-10-31,y,n,n,n,22,,,,,,,,,,,,,,
CNTS_200000000009562,축제/행사,제주 윈터 페스티벌,국문,제주 윈터 페스티벌,,,,,,y,0,,0,,0,0,0,0,0,y,y,n,m,y,,,,,m,m,m,,,,,,,,,,iamsunon,2019-12-10,iamsunon,2019-12-10,0,,,,n,2019-12-10,,,,y,n,n,n,0,,,m,m,,,,,,,,,n,n
CONT_000000000500239,관광지,법화사지,국문,법화사지,,제주특별자치도 서귀포시 하원동 1071-1,제주특별자치도 서귀포시 하원북로35번길 15-28,33.2653454,126.4576828,y,5,,6741,,2,3,24,0,1,y,y,y,y,y,2019-07-12 15:01,y,y,y,y,y,y,y,y,y,y,y,y,2019-07-23,2019-07-23,2019-07-23,anonymous,2016-05-30,anonymous,2025-03-05,0,13503,,,n,2016-05-30,2016-05-30,2016-05-30,2016-05-30,n,y,y,y,3,y,,y,,y,,y,,,,2022-11-25,,y,
CNTS_000000000021945,음식점,제주기정떡,국문,제주기정떡,,제주특별자치도 제주시 애월읍 광령리 901-4,제주특별자치도 제주시 애월읍 평화로 2747,33.449394,126.43736,y,,,3895,,2,0,13,0,0,y,y,y,y,y,2019-11-04 9:20,y,y,y,m,m,m,y,y,y,y,y,y,,,,anonymous,2017-05-19,anonymous,2025-03-04,2,7796,,63062,n,2017-05-19,2017-05-19,2017-05-19,2017-05-19,y,n,n,n,,,,,,,,,,,,,,,
CNTS_000000000018164,숙박,펄호텔제주,국문,펄호텔제주,,제주특별자치도 제주시 연동 277-1,제주특별자치도 제주시 신대로20길 49,33.483475,126.491264,y,,,1979,,1,0,0,0,0,y,y,y,y,y,2019-06-28 10:32,y,y,y,m,y,m,y,y,y,y,y,y,,2019-04-23,,anonymous,2016-09-29,anonymous,2025-02-26,0,3961,1163865,63136,n,2016-09-29,2016-09-29,2019-04-23,2016-09-29,y,n,y,n,,y,,y,,y,,y,,2019-04-23,,2019-04-23,,y,
CNTS_000000000019892,관광지,스쿠버스쿨,국문,스쿠버스쿨,,제주특별자치도 제주시 도두이동 1669-3,제주특별자치도 제주시 서해안로 301,33.5089684,126.4776764,y,,,9692,,4,0,33,0,0,y,y,y,y,y,2019-07-12 10:39,y,y,y,y,y,y,y,y,y,y,y,y,2019-07-22,2019-07-22,2019-07-22,anonymous,2016-10-28,anonymous,2025-03-04,4,19396,,,n,2016-10-28,2016-10-28,2016-10-28,2016-10-28,y,y,y,y,,y,,y,,y,,y,,2019-07-22,,2019-07-22,,y,
CNTS_300000000012734,축제/행사,2023 뒷개백중맞이,국문,2023 뒷개백중맞이,,제주특별자치도 제주시 조천읍 북촌리 1371,제주특별자치도 제주시 조천읍 북촌7길 27,33.5503369,126.6930908,y,0,https://www.instagram.com/hands_ofpeople/,221,,0,0,0,0,0,y,y,y,y,y,2023-08-25 18:05,,,,m,m,m,,,,,,,,,,9900022,2023-08-23,9900022,2025-03-04,0,442,,,n,2023-08-23,,,,y,n,n,n,0,,,m,m,,,,,,,,,n,n
CNTS_000000000022147,음식점,곽지식당,국문,곽지식당,,제주특별자치도 제주시 애월읍 곽지리 1575-3,제주특별자치도 제주시 애월읍 곽지3길 27,33.449352,126.30442,y,,,3741,,0,0,1,0,0,y,y,y,y,y,2019-10-04 16:10,y,y,y,y,y,y,y,y,n,y,y,y,2019-10-04,2019-10-04,,anonymous,2017-07-12,anonymous,2025-02-27,0,7482,9027316,63034,n,2017-07-12,2017-07-12,2017-07-12,2017-07-12,y,y,y,n,,y,,y,,y,,y,,2019-10-04,,2019-10-04,,y,
CONT_000000000500857,숙박,로즈비치,국문,로즈비치,,제주특별자치도 제주시 조천읍 신흥리 874,제주특별자치도 제주시 조천읍 조함해안로 162,33.5447774,126.650164,y,,,2769,,0,0,0,0,0,y,y,y,y,y,2019-11-22 15:04,y,y,y,y,y,y,y,y,y,y,y,y,2019-11-22,2019-11-22,2019-11-22,anonymous,2016-05-30,anonymous,2025-03-03,0,5538,,,n,2016-05-30,2016-05-30,2016-05-30,2016-05-30,y,y,y,y,,y,,y,,y,,y,,,,2022-12-02,,y,
CNTS_000000000021907,축제/행사,방선문축제,국문,방선문 축제,,제주특별자치도 제주시 오라2동 3819-11,제주시 오라동 방선문계곡,33.464767,126.51687,y,,,11282,,1,0,2,0,0,y,y,y,y,y,2019-04-24 13:25,y,y,y,y,y,y,n,n,n,y,y,y,2019-04-24,2019-04-24,2019-04-24,anonymous,2017-04-27,anonymous,2025-03-03,9,22567,,,n,2017-04-27,2019-04-24,2019-04-24,2019-04-24,n,n,n,n,,y,,y,,n,,y,,2019-04-24,,2019-04-24,,n,
CNTS_000000000020053,음식점,쉬림프봉봉&올레파머스,국문,쉬림프봉봉&올레파머스,,제주특별자치도 제주시 구좌읍 월정리 523-1,제주특별자치도 제주시 구좌읍 월정7길 57,33.55525,126.79582,y,5,,2686,,0,4,5,0,0,y,y,n,m,y,,y,y,y,m,m,m,n,n,n,y,y,y,,,,anonymous,2016-11-04,anonymous,2025-03-05,0,5392,,,n,2016-11-04,2016-11-04,2016-11-04,2016-11-04,n,n,n,n,4,y,,m,,n,,y,,,,2019-02-25,,n,
CNTS_000000000022620,축제/행사,평화의 섬 제주 아트의 섬이 되다,국문,평화의 섬 제주 아트의 섬이 되다,,제주특별자치도 제주시 조천읍 선흘리 478,제주특별자치도 제주시 조천읍 선교로 569-36,33.45703,126.7143,y,,,340,,0,0,0,0,0,y,y,n,y,y,,y,y,y,m,m,m,y,y,y,y,y,y,,,,anonymous,2017-09-29,anonymous,2022-02-14,0,680,,63341,n,2017-09-29,2017-09-29,2017-09-29,2017-09-29,n,n,n,n,,,,,,,,,,,,,,,
CNTS_300000000012752,테마여행,여름따라 <클린올레>,국문,여름따라 <클린올레>,,,,,,y,5,,1187,,6,4,1,0,0,y,y,y,y,y,2023-09-01 14:20,,,,m,m,m,,,,,,,,,,jto0900045,2023-09-01,jto0900045,2025-03-05,2,2412,,,n,2023-09-01,,,,y,n,n,n,0,,,m,m,,,,,,,,,n,n
CNTS_300000000012759,축제/행사,2024 제주애니아일랜드 페스티벌,국문,2024 제주애니아일랜드 페스티벌,,제주특별자치도 서귀포시 동홍동 455-3,제주특별자치도 서귀포시 동홍로 41,33.252349,126.5673143,y,0,,526,,0,0,0,0,0,y,y,y,y,y,2023-09-08 14:55,,,,m,m,m,,,,,,,,,,changwon1031,2023-09-06,changwon1031,2025-03-04,0,1052,,,n,2023-09-06,,,,y,n,n,n,0,,,m,m,,,,,,,,,n,n
CNTS_000000000020802,숙박,비비엔다(폐업),국문,비비엔다(폐업),,제주특별자치도 제주시 구좌읍 세화리 18,제주특별자치도 제주시 구좌읍 세화11길 18,33.522514,126.86111,y,3,,2253,,0,1,2,0,0,y,y,y,y,y,2019-11-28 10:02,y,y,y,m,m,m,y,y,y,y,y,y,,,,anonymous,2016-11-30,anonymous,2025-03-05,1,4511,,63361,n,2016-11-30,2016-11-30,2016-11-30,2016-11-30,y,n,n,n,1,,,,,,,,,,,,,,
CNTS_000000000020050,관광지,보롬왓,국문,보롬왓,,제주특별자치도 서귀포시 표선면 성읍리 3229-4,제주특별자치도 서귀포시 표선면 번영로 2350-104,33.41367,126.75351,y,5,,123390,,35,58,1131,0,7,y,y,y,y,y,2018-11-12 15:58,y,y,y,y,y,y,y,y,y,y,y,y,2019-09-03,2019-09-03,2019-09-03,anonymous,2016-11-04,anonymous,2025-03-05,112,247175,,63624,n,2016-11-04,2016-11-04,2016-11-04,2016-11-04,y,y,y,y,126,y,y,y,y,y,y,y,y,2019-09-03,2019-09-03,2019-09-03,2019-09-03,y,y
CNTS_000000000019946,관광지,귀빈사,국문,귀빈사,,제주특별자치도 제주시 구좌읍 송당리 2438,제주특별자치도 제주시 구좌읍 비자림로 1456,33.4429016,126.7613249,y,5,,9994,,2,1,38,0,0,y,y,y,y,y,2019-05-22 16:27,y,y,y,y,y,y,y,y,y,y,y,y,2019-05-22,2019-05-22,2019-05-22,anonymous,2016-10-31,anonymous,2025-03-05,7,19999,,,n,2016-10-31,2016-10-31,2016-10-31,2016-10-31,y,y,y,y,5,y,,y,,y,,y,,2019-05-22,,2019-05-22,,y,
CNTS_000000000022209,음식점,준반점,국문,준반점,,제주특별자치도 제주시 조천읍 함덕리 1004-29,제주특별자치도 제주시 조천읍 조함해안로 528,33.54249,126.669304,y,,,2537,,0,0,2,0,0,y,y,y,y,y,2019-10-04 17:03,y,y,y,y,y,y,y,y,y,y,y,y,2019-10-04,2019-10-04,2019-10-04,anonymous,2017-07-26,anonymous,2025-02-27,0,5074,9169971,63333,n,2017-07-26,2017-07-26,2017-07-26,2017-07-26,y,y,y,y,,y,,y,,y,,y,,2019-10-04,,2019-10-04,,y,
CONT_000000000501282,음식점,돌하르방 뚝배기,국문,돌하르방 뚝배기,,제주특별자치도 서귀포시 성산읍 성산리 141,제주특별자치도 서귀포시 성산읍 일출로 264,33.4611919,126.9339076,y,4,,4825,,2,1,36,0,0,y,y,y,y,y,2019-10-31 10:52,y,y,y,y,y,y,y,y,y,y,y,y,2019-10-31,2019-10-31,2019-10-31,anonymous,2016-05-30,anonymous,2025-03-05,0,9661,9246840,,n,2016-05-30,2016-05-30,2016-05-30,2016-05-30,y,y,y,y,3,y,,y,,y,,y,,,,2022-12-07,,y,
CNTS_300000000012764,축제/행사,"제2회 화북, 포구문화제",국문,"제2회 화북, 포구문화제",,,,,,y,0,,179,,0,0,0,0,0,y,y,y,y,y,2023-09-14 11:40,,,,m,m,m,,,,,,,,,,jto0900045,2023-09-14,jto0900045,2025-02-14,0,358,,,n,2023-09-14,,,,y,n,n,n,0,,,m,m,,,,,,,,,n,n
CONT_000000000501197,음식점,대관원,국문,대관원,,제주특별자치도 제주시 연동 312-54,제주특별자치도 제주시 신대로13길 3,33.487804,126.49748,y,,,3261,,1,0,5,0,0,y,y,n,y,y,2019-10-02 15:17,y,y,y,y,y,y,n,n,n,y,y,y,2019-10-02,2019-10-02,2019-10-02,anonymous,2016-05-30,anonymous,2022-10-11,0,6525,,63122,n,2016-05-30,2016-05-30,2016-05-30,2016-05-30,y,y,y,y,,y,,y,,n,,y,,,,2022-06-16,,y,
CNTS_000000000022177,음식점,버거307,국문,버거307,,"제주특별자치도 제주시 조천읍 함덕리 1269-19 , 더스테이 1층 130호",제주특별자치도 제주시 조천읍 조함해안로 504,33.499622,126.53119,y,,,3547,,0,0,3,0,0,y,y,y,y,y,2019-10-04 16:37,y,y,y,y,y,y,y,y,y,y,y,y,2019-10-04,2019-10-04,2019-10-04,anonymous,2017-07-19,anonymous,2025-03-04,2,7094,,63333,n,2017-07-19,2017-07-19,2017-07-19,2017-07-19,y,y,y,y,,y,,y,,y,,y,,2019-10-04,,2019-10-04,,y,
CNTS_000000000021306,숙박,단추스테이,국문,단추스테이,,제주특별자치도 제주시 한림읍 금능리 1593,제주특별자치도 제주시 한림읍 금능1길 15-8,33.38833,126.22373,y,5,,2162,,0,1,3,0,0,y,y,y,y,y,2019-06-21 15:09,y,y,y,m,m,m,y,y,y,y,y,y,,,,anonymous,2016-12-24,anonymous,2025-03-05,1,4329,,63010,n,2016-12-24,2016-12-24,2016-12-24,2016-12-24,n,n,n,n,2,,,,,,,,,,,,,,
CONT_000000000500260,관광지,너븐숭이 4.3기념관,국문,너븐숭이 4.3기념관,,제주특별자치도 제주시 조천읍 북촌리 1599,제주특별자치도 제주시 조천읍 북촌3길 3,33.545986,126.68877,y,5,,47574,,11,40,105,0,1,y,y,y,y,y,2019-01-08 16:47,y,y,y,y,y,y,y,y,y,y,y,y,,,2019-11-27,anonymous,2016-05-30,anonymous,2025-03-05,18,95381,13002016,,n,2016-05-30,2016-05-30,2016-05-30,2016-05-30,y,y,y,y,45,y,,y,,y,,y,,,,2020-08-20,,y,
CNTS_300000000012688,숙박,제주애빛나다,국문,제주애빛나다,,제주특별자치도 제주시 한경면 조수리 1622,제주특별자치도 제주시 한경면 고조로 492-6,33.3294047,126.2216605,y,0,http://www.instagram.com/jeju_lovely_life,221,,0,0,0,0,0,y,y,y,y,y,2023-08-18 16:01,,,,m,m,m,,,,,,,,,,olaolab,2023-08-18,olaolab,2025-02-28,0,442,,,n,2023-08-18,,,,y,n,n,n,0,,,m,m,,,,,,,,,n,n
CNTS_300000000012682,숙박,엠버퓨어힐호텔&리조트,국문,엠버퓨어힐호텔&리조트,,제주특별자치도 제주시 노형동 산 13,제주특별자치도 제주시 1100로 2671-30,33.4264438,126.4870326,y,5,http://www.instagram.com/amber_purehill,347,,0,1,2,0,1,y,y,y,y,y,2023-08-18 15:56,,,,m,m,m,,,,,,,,,,olaolab,2023-08-18,olaolab,2025-03-05,0,699,,,n,2023-08-18,,,,y,n,n,n,0,,,m,m,,,,,,,,,n,n
CONT_000000000500618,관광지,천지연폭포,국문,천지연폭포,,제주특별자치도 서귀포시 서홍동 666-1,제주특별자치도 서귀포시 남성중로 2-15,33.2447173,126.5598201,y,5,,454927,,100,210,2831,0,18,y,y,y,y,y,2019-07-12 10:27,y,y,y,y,y,y,y,y,y,y,y,y,2019-07-22,2019-07-22,2019-07-22,anonymous,2016-05-30,anonymous,2025-03-05,313,911204,,,n,2016-05-30,2016-05-30,2016-05-30,2016-05-30,y,y,y,y,294,y,y,y,y,y,y,y,y,,,2022-11-30,2022-11-30,y,y
CNTS_000000000019646,관광지,제주프린지페스티벌,국문,제주프린지페스티벌,,제주특별자치도 제주시 삼도2동 60-5,,33.512447,126.52219,y,,,914,,0,0,2,0,0,y,y,n,y,y,2019-01-09 10:22,y,y,y,y,y,y,n,n,n,y,y,y,,,,anonymous,2016-10-26,anonymous,2022-07-06,0,1828,,,n,2016-10-26,2016-10-26,2016-10-26,2016-10-26,n,n,n,n,,y,,y,,n,,y,,,,2019-02-25,,n,
CONT_000000000500230,관광지,"방주오름 (방지오름, 방제오름)",국문,"방주오름 (방지오름, 방제오름)",,제주특별자치도 제주시 한림읍 명월리 679,제주특별자치도 제주시 한림읍 명월리 679,33.3772555,126.2851832,y,,,1416,,0,0,0,0,0,y,y,n,y,y,2019-07-12 10:27,y,y,y,y,y,y,n,n,n,y,y,y,2019-07-22,2019-07-22,2019-07-22,anonymous,2016-05-30,anonymous,2022-07-06,0,2832,,,n,2016-05-30,2016-05-30,2016-05-30,2016-05-30,y,y,y,y,,y,,y,,n,,y,,2019-07-22,,2019-07-22,,y,
CNTS_000000000020517,음식점,동방양꼬치구이,국문,동방양꼬치구이,,제주특별자치도 서귀포시 명동로 14,제주특별자치도 서귀포시 명동로 14,33.246956,126.56347,y,3,,2134,,1,1,0,0,0,y,y,y,m,y,,y,y,y,m,m,m,y,y,y,y,y,y,,,,anonymous,2016-11-22,anonymous,2025-03-05,0,4276,9121765,,n,2016-11-22,2016-11-22,2016-11-22,2016-11-22,n,n,n,n,1,y,,m,,y,,y,,,,2019-02-25,,n,
CNTS_300000000012686,숙박,옵데가 바이 에퀴녹스,국문,옵데가 바이 에퀴녹스,,제주특별자치도 제주시 한림읍 협재리 1503-1,제주특별자치도 제주시 한림읍 협재10길 4,33.39858,126.2466933,y,0,http://www.instagram.com/equinoxe_group,271,,0,0,0,0,0,y,y,y,y,y,2023-08-18 15:58,,,,m,m,m,,,,,,,,,,olaolab,2023-08-18,olaolab,2025-02-26,0,542,,,n,2023-08-18,,,,y,n,n,n,0,,,m,m,,,,,,,,,n,n
CNTS_000000000022210,음식점,용두암 바당회국수,국문,용두암 바당회국수,,제주시 용담3동 1026-3,제주시 서해안로 614,33.51699,126.502815,y,,,1870,,0,0,6,0,0,y,y,y,y,y,2019-10-04 17:12,y,y,y,m,m,m,y,y,y,y,y,y,,,,anonymous,2017-07-26,anonymous,2025-02-27,0,3740,9070908,,n,2017-07-26,2017-07-26,2017-07-26,2017-07-26,y,n,n,n,,,,,,,,,,,,,,,
CNTS_000000000019091,관광지,묵리처녀당,국문,묵리처녀당,,제주특별자치도 제주시 추자면 묵리 229-1,제주특별자치도 제주시 추자면 묵리 229-1,33.94317,126.31426,y,,,3642,,0,0,0,0,0,y,y,y,y,y,2019-07-12 14:24,y,y,y,y,y,y,y,y,y,y,y,y,2019-07-23,2019-07-23,2019-07-23,anonymous,2016-10-19,anonymous,2025-03-04,1,7284,,,n,2016-10-19,2016-10-19,2016-10-19,2016-10-19,n,y,y,y,,y,,y,,y,,y,,2019-07-23,,2019-07-23,,y,
CNTS_200000000009560,테마여행,딸기밭  걷기  ,국문,딸기밭  걷기  ,,,,,,y,0,,7859,,0,0,0,0,0,y,y,n,w,y,,y,,,y,m,m,y,,,y,,,2019-12-11,,,glocalnews,2019-12-09,glocalnews,2025-03-05,0,15718,,,n,2019-12-09,2019-12-09,,,y,y,n,n,0,,,m,m,,,,,,,,,n,n
CONT_000000000500327,관광지,서귀포자연휴양림,국문,서귀포자연휴양림,,제주특별자치도 서귀포시 대포동 산 1-8,제주특별자치도 서귀포시 1100로 882,33.31167,126.45876,y,5,,31130,,7,12,195,0,0,y,y,y,y,y,2019-07-12 13:15,y,y,y,y,y,y,y,y,y,y,y,y,2018-12-28,2019-07-22,2018-12-28,anonymous,2016-05-30,anonymous,2025-03-05,14,62341,,63554,n,2016-05-30,2016-05-30,2016-05-30,2016-05-30,y,y,y,y,31,y,,y,,y,,y,,,,2022-11-28,,y,
CONT_000000000500232,관광지,백약이오름,국문,백약이오름,,제주특별자치도 서귀포시 표선면 성읍리 산 1,제주특별자치도 서귀포시 표선면 성읍리 산 1,33.437283,126.79018,y,5,,92306,,8,59,358,0,3,y,y,y,y,y,2019-07-22 17:54,y,y,y,y,y,y,y,y,y,y,y,y,2019-07-22,2019-07-22,2019-07-22,anonymous,2016-05-30,anonymous,2025-03-05,62,184931,,,n,2016-05-30,2016-05-30,2016-05-30,2016-05-30,y,y,y,y,109,y,y,y,y,y,y,y,y,,,2022-11-25,2022-11-25,y,y
CONT_000000000501216,음식점,돌하르방식당,국문,돌하르방식당,,제주특별자치도 제주시 한림읍 협재리 2487,제주특별자치도 제주시 한림읍 한림로 300,33.3879944,126.2397837,y,5,,6810,,0,1,33,0,0,y,y,y,y,y,2019-09-09 16:06,y,y,y,y,y,y,y,y,y,y,y,y,2019-09-09,2019-09-09,2019-09-09,anonymous,2016-05-30,anonymous,2025-03-05,0,13625,9246820,,n,2016-05-30,2016-05-30,2016-05-30,2016-05-30,y,y,y,y,3,y,,y,,y,,y,,,,2022-12-07,,y,
CNTS_000000000022790,테마여행,"(영특)겨울제주짜릿한 액티비티여행(인도네시아, 필리핀)",국문,"(영특)겨울제주짜릿한 액티비티여행(인도네시아, 필리핀)",,,,0,0,y,,,7074,,0,0,0,0,0,y,y,n,y,y,,y,y,y,y,m,m,y,y,y,y,y,y,,,,anonymous,2018-01-31,anonymous,2025-03-04,4,14148,,,n,2018-01-31,2018-01-31,2018-01-31,2018-01-31,n,n,n,n,,,y,,y,,y,,y,,2019-02-18,,2019-02-18,,n
CNTS_000000000022261,음식점,킨포크,국문,킨포크,,제주특별자치도 제주시 노형동 3803-17,제주특별자치도 제주시 노형3길 8,33.483097,126.477234,y,,,1931,,0,0,1,0,0,y,y,n,y,y,2019-09-11 13:30,y,y,y,y,y,y,n,n,n,y,y,y,2019-09-11,2019-09-11,2019-09-11,anonymous,2017-07-31,anonymous,2023-01-06,0,3862,,63088,n,2017-07-31,2017-07-31,2017-07-31,2017-07-31,y,y,y,y,,y,,y,,n,,y,,,,2023-01-06,,y,
CNTS_000000000022263,음식점,키스더티라미수,국문,키스더티라미수,,제주특별자치도 제주시 애월읍 고내리 473,제주특별자치도 제주시 애월읍 애월해안로 274,33.46854,126.34041,y,,,539,,0,0,0,0,0,y,y,n,m,y,,y,y,y,m,m,m,y,y,y,y,y,y,,,,anonymous,2017-07-31,anonymous,2022-02-14,0,1078,,63046,n,2017-07-31,2017-07-31,2017-07-31,2017-07-31,n,n,n,n,,y,,m,,y,,y,,,,2019-02-25,,n,
CNTS_000000000022282,관광지,디스커버제주,국문,디스커버제주,,제주특별자치도 서귀포시 대포동 760-3,제주특별자치도 서귀포시 대포로 26,33.2435151,126.4352216,y,,,14343,,2,0,51,0,0,y,y,y,y,y,2019-08-12 17:37,y,y,y,y,y,y,y,y,n,y,y,y,2019-08-12,2019-08-12,2019-07-24,anonymous,2017-08-01,anonymous,2025-03-04,3,28692,,,n,2017-08-01,2019-08-12,2017-08-01,2017-08-01,y,y,y,y,,y,,y,,y,,y,,2019-08-12,,2019-08-12,,y,
CNTS_000000000022163,음식점,바다위에코끼리,국문,바다위에코끼리,,제주특별자치도 제주시 한림읍 협재리 1695,제주특별자치도 제주시 한림읍 협재1길 27-6,33.499622,126.53119,y,5,https://www.instagram.com/jeju_baco/,5710,,1,2,19,0,0,y,y,y,y,y,2019-09-09 16:29,y,y,y,y,y,y,y,y,y,y,y,y,2019-09-09,2019-09-09,2019-09-09,anonymous,2017-07-17,anonymous,2025-03-05,2,11433,,63011,n,2017-07-17,2017-07-17,2017-07-17,2017-07-17,y,y,y,y,5,y,,y,,y,,y,,2019-09-09,,2019-09-09,,y,
CONT_000000000500390,관광지,쉬리의언덕,국문,쉬리의언덕,,제주특별자치도 서귀포시 색달동 3039-1,제주특별자치도 서귀포시 중문관광로72번길 114,33.244597,126.406077,y,5,,22100,,4,4,153,0,0,y,y,y,y,y,2019-08-22 17:42,y,y,y,y,y,y,y,y,y,y,y,y,2019-07-22,2019-07-22,2019-07-22,anonymous,2016-05-30,anonymous,2025-03-05,3,44232,,63535,n,2016-05-30,2016-05-30,2016-05-30,2016-05-30,y,y,y,y,9,y,,y,,y,,y,,,,2022-11-28,,y,
CONT_000000000500546,관광지,제주돌마을공원,국문,제주돌마을공원,,제주특별자치도 제주시 한림읍 금능리 368-2,제주특별자치도 제주시 한림읍 금능남로 421,33.3537549,126.2536813,y,5,,14920,,5,3,60,0,0,y,y,y,y,y,2019-07-12 10:18,y,y,y,y,y,y,y,y,y,y,y,y,2019-07-22,2019-07-22,2019-07-22,anonymous,2016-05-30,anonymous,2025-03-05,0,29870,,,n,2016-05-30,2016-05-30,2016-05-30,2016-05-30,y,y,y,y,5,y,,y,,y,,y,,,,2022-11-30,,y,
CNTS_000000000022161,축제/행사,쌈마이웨이 to 제주,국문,쌈마이웨이 to 제주,,제주특별자치도 제주시 오등동 10-1,제주특별자치도 제주시 선돌목동길 56-26,33.445293,126.54792,y,5,,294,,0,0,0,0,0,y,y,n,y,y,,y,y,y,m,m,m,y,y,y,y,y,y,,,,anonymous,2017-07-17,anonymous,2022-02-14,0,588,,63242,n,2017-07-17,2017-07-17,2017-07-17,2017-07-17,n,n,n,n,,,,,,,,,,,,,,,
CNTS_000000000022281,음식점,돌토고리족욕카페,국문,돌토고리족욕카페,,제주특별자치도 서귀포시 표선면 표선리 40-32,제주특별자치도 서귀포시 표선면 표선당포로 16-4,33.32556,126.84445,y,,,5023,,0,0,3,0,0,y,y,n,y,y,2019-09-09 16:42,y,y,y,y,y,y,n,n,n,y,y,y,2019-09-09,2019-09-09,2019-09-09,anonymous,2017-08-01,anonymous,2023-01-06,1,10046,,63629,n,2017-08-01,2017-08-01,2017-08-01,2017-08-01,y,y,y,y,,y,,y,,n,,y,,,,2023-01-06,,y,
CNTS_200000000013532,축제/행사, 981 SUNSET MOVIE,국문, 981 SUNSET MOVIE,,제주특별자치도 제주시 애월읍 어음리 산 131,제주특별자치도 제주시 애월읍 천덕로 880-24,33.3908081,126.3625262,y,5,https://www.instagram.com/p/Ce5s-qYLCeP/,3298,,1,1,2,0,1,y,y,n,y,y,2022-06-23 11:05,,,,m,m,m,,,,,,,,,,iamsunon,2022-06-23,iamsunon,2025-03-05,11,6604,,,n,2022-06-23,,,,y,n,n,n,0,,,m,m,,,,,,,,,n,n
CONT_000000000500058,관광지,"광이오름 (괭이오름, 肝列岳)",국문,"광이오름 (괭이오름, 肝列岳)",,제주특별자치도 제주시 연동 산 62,제주특별자치도 제주시 연동 산 62,33.46847099,126.4950638,y,,,2661,,0,0,0,0,0,y,y,n,y,y,2019-07-12 11:48,y,y,y,y,y,y,n,n,n,y,y,y,2019-07-23,2019-07-23,2019-07-23,anonymous,2016-05-30,anonymous,2022-07-06,0,5322,,,n,2016-05-30,2016-05-30,2016-05-30,2016-05-30,y,y,y,y,,y,,y,,n,,y,,2019-07-23,,2019-07-23,,y,
CNTS_200000000013769,테마여행,제주마을산책 <표선면-가을편 [상]>,국문,제주마을산책 <표선면-가을편 [상]>,,,,,,y,0,,2575,,2,0,1,0,0,y,y,y,y,y,2022-08-30 9:50,y,y,y,y,y,y,y,y,y,y,y,y,2022-10-19,2022-10-25,2022-11-07,jto0900045,2022-08-26,jto0900045,2025-03-04,3,5156,,,n,2022-08-26,2022-10-19,2022-10-24,2022-11-07,y,y,y,y,0,y,,t,m,y,,y,,,,2022-10-25,,y,n
CNTS_200000000013791,관광지,빛의 벙커,국문,빛의 벙커,,제주특별자치도 서귀포시 성산읍 고성리  2039-22,제주특별자치도 서귀포시 성산읍 고성리  2039-22,33.4398006,126.8991174,y,5,https://www.instagram.com/bunkerdelumieres/,16227,,2,1,100,0,1,y,y,y,y,y,2022-08-31 13:49,y,y,y,y,t,t,y,y,y,y,y,y,2022-08-31,,,iamsunon,2022-08-31,iamsunon,2025-03-05,6,32465,,,n,2022-08-31,2022-08-31,2025-01-13,2025-01-13,y,y,y,y,0,y,y,t,t,y,y,y,y,,,2025-01-13,2025-01-13,y,y
CNTS_300000000012750,축제/행사,아트 트랙 제주 2023,국문,아트 트랙 제주 2023,,,,,,y,0,,776,,0,0,0,0,0,y,y,n,y,y,2023-08-30 10:55,,,,m,m,m,,,,,,,,,,rlaalr83,2023-08-30,rlaalr83,2023-10-31,0,1552,,,n,2023-08-30,,,,y,n,n,n,0,,,m,m,,,,,,,,,n,n
CNTS_200000000014007,테마여행,"한국 속 해외, <탐라국에서 즐기는 세계 일주>",국문,"한국 속 해외, <탐라국에서 즐기는 세계 일주>",,,,,,y,0,,2074,,0,0,0,0,0,y,y,y,y,y,2022-10-24 13:05,,,,m,m,m,,,,,,,,,,jto0900045,2022-10-24,jto0900045,2025-03-02,3,4148,,,n,2022-10-24,,,,y,n,n,n,0,,,m,m,,,,,,,,,n,n
CNTS_000000000022288,음식점,라스또르따스,국문,라스또르따스,,제주특별자치도 제주시 이도이동 1179-16,제주특별자치도 제주시 광양11길 8-1,33.4991863,126.5311145,y,,,3233,,1,0,8,0,0,y,y,y,y,y,2019-05-09 12:37,y,y,y,y,y,y,y,y,y,y,y,y,2019-05-09,2019-05-09,2019-05-09,anonymous,2017-08-01,anonymous,2025-03-04,2,6469,11621283,63046,n,2017-08-01,2017-08-01,2017-08-01,2017-08-01,y,y,y,y,,y,,y,,y,,y,,2019-05-09,,2019-04-12,,y,
CNTS_000000000022290,음식점,라쁠라주,국문,라쁠라주,,제주특별자치도 제주시 용담삼동 2289,제주특별자치도 제주시 서해안로 518,33.5198301,126.4944679,y,,,684,,0,0,2,0,0,y,y,y,y,y,2019-09-10 10:43,y,y,y,m,m,m,y,y,y,y,y,y,,,,anonymous,2017-08-01,anonymous,2025-03-04,0,1368,,,n,2017-08-01,2017-08-01,2017-08-01,2017-08-01,y,n,n,n,,,,,,,,,,,,,,,
CONT_000000000501377,음식점,채원일식,국문,채원일식,,제주특별자치도 제주시 이도2동 314-6,제주특별자치도 제주시 가령골2길 4,33.504257,126.537544,y,5,,2176,,0,2,0,0,0,y,y,n,y,y,2019-09-11 13:55,y,y,y,y,y,y,y,y,y,y,y,y,2019-09-11,2019-09-11,2019-09-11,anonymous,2016-05-30,anonymous,2025-03-05,0,4362,8896817,63214,n,2016-05-30,2016-05-30,2016-05-30,2016-05-30,y,y,y,y,1,y,,y,,y,,y,,2019-09-11,,2019-09-11,,y,
CONT_000000000500392,관광지,시민축구장,국문,시민축구장,,제주특별자치도 서귀포시 토평동 1128-1,제주특별자치도 서귀포시 토평남로 47-13,33.2617646,126.5893096,y,,,963,,0,0,1,0,0,y,y,n,y,y,2019-07-12 13:57,y,y,y,y,y,y,n,n,n,y,y,y,2019-07-22,2019-07-22,2019-07-22,anonymous,2016-05-30,anonymous,2022-07-06,0,1926,,,n,2016-05-30,2016-05-30,2016-05-30,2016-05-30,y,y,y,y,,y,,y,,n,,y,,2019-07-22,,2019-07-22,,y,
CONT_000000000500297,관광지,삼매봉,국문,삼매봉,,제주특별자치도 서귀포시 서홍동 819,제주특별자치도 서귀포시 남성로115번길 83,33.2639577,126.5507293,y,5,,8268,,1,1,5,0,0,y,y,y,y,y,2019-07-12 10:15,y,y,y,y,y,y,y,y,y,y,y,y,2019-07-22,2019-07-22,2019-07-22,anonymous,2016-05-30,anonymous,2025-03-05,0,16544,,63594,n,2016-05-30,2016-05-30,2016-05-30,2016-05-30,y,y,y,y,5,y,,y,,y,,y,,,,2022-11-25,,y,
CONT_000000000500730,쇼핑,삼다닷컴,국문,삼다닷컴,,제주특별자치도 제주시 도남동 834,제주시 연삼로 295-1,33.492626,126.52447,y,3,,5175,,0,1,1,0,0,y,y,n,y,y,2019-04-15 18:18,y,y,y,y,y,y,n,n,n,y,y,y,2019-04-15,2019-04-15,2019-04-15,anonymous,2016-05-30,anonymous,2025-03-05,1,10355,,,n,2016-05-30,2016-05-30,2016-05-30,2016-05-30,y,y,y,y,,y,,y,,n,,y,,2019-04-15,,2019-04-15,,y,
CNTS_000000000021897,숙박,오름게스트하우스,국문,오름게스트하우스,,제주특별자치도 제주시 구좌읍 세화리 1758-41,제주특별자치도 제주시 구좌읍 충렬로 147-19,33.50991,126.84661,y,5,,4045,,0,1,2,0,1,y,y,y,y,y,2019-06-21 14:04,y,y,y,y,y,y,y,y,y,y,y,y,,,,anonymous,2017-04-19,anonymous,2025-03-05,0,8095,,63352,n,2017-04-19,2017-04-19,2017-04-19,2017-04-19,y,y,y,y,,y,,y,,y,,y,,,,2020-08-24,,y,
CNTS_000000000022245,축제/행사,제주국제관악제 가을시즌,국문,제주국제관악제 가을시즌,,제주특별자치도 제주시 일도이동 852,제주특별자치도 제주시 동광로 69,33.5043089,126.5353859,y,,,13925,,1,0,2,0,0,y,y,n,y,y,2019-07-11 11:47,y,y,y,y,t,y,n,n,n,y,y,y,2019-08-02,2019-01-18,2019-07-30,anonymous,2017-07-28,anonymous,2023-11-01,12,27853,,63147,n,2017-07-28,2017-07-28,2017-07-28,2019-07-29,y,n,n,y,,y,,t,,n,,y,,,,2019-02-25,,n,
CONT_000000000500299,관광지,삼사석,국문,삼사석,,제주특별자치도 제주시 화북1동 1380-1,제주특별자치도 제주시 화북1동 1380-1,33.521027,126.5741,y,,,4590,,1,0,2,0,0,y,y,y,y,y,2019-07-22 11:48,y,y,y,y,y,y,y,y,y,y,y,y,2019-07-22,2019-07-22,2019-07-22,anonymous,2016-05-30,anonymous,2025-03-05,0,9183,,,n,2016-05-30,2016-05-30,2016-05-30,2016-05-30,y,y,y,y,,y,,y,,y,,y,,,,2022-11-25,,y,
CNTS_000000000020518,숙박,코시롱게스트하우스,국문,코시롱게스트하우스,,제주특별자치도 서귀포시 성산읍 성산리 178-8,제주특별자치도 서귀포시 성산읍 성산중앙로37번길 1,33.46319,126.93307,y,3,,2300,,0,2,2,0,0,y,y,y,y,y,2019-06-26 9:45,y,y,y,m,m,m,y,y,y,y,y,y,,,,anonymous,2016-11-22,anonymous,2025-03-05,0,4610,,63643,n,2016-11-22,2016-11-22,2016-11-22,2016-11-22,n,n,n,n,2,,,,,,,,,,,,,,
CONT_000000000500564,관광지,제주실탄사격장,국문,제주실탄사격장,,제주특별자치도 서귀포시 상예동 2802,제주특별자치도 서귀포시 소보리당로 164번길 62(상예동),33.2639753,126.3852041,y,5,,99006,,11,3,198,0,0,y,y,y,y,y,2019-07-24 10:53,y,y,y,y,y,y,y,y,y,y,y,y,2019-07-24,2019-07-24,2019-07-24,anonymous,2016-05-30,anonymous,2025-03-05,93,198060,,,n,2016-05-30,2016-05-30,2016-05-30,2016-05-30,y,y,y,y,7,y,,y,,y,,y,,,,2022-11-30,,y,
CNTS_000000000021986,음식점,함덕밀면,국문,함덕밀면,,제주특별자치도 제주시 조천읍 함덕리 960,제주특별자치도 제주시 조천읍 신북로 566,33.5402349,126.6700387,y,,,3202,,1,0,19,0,0,y,y,n,y,y,2019-10-02 11:04,y,y,y,m,m,m,y,y,y,y,y,y,,,,anonymous,2017-06-13,anonymous,2023-01-11,3,6407,,,n,2017-06-13,2017-06-13,2017-06-13,2017-06-13,y,n,n,n,,,,,,,,,,,,,,,
CNTS_000000000022800,축제/행사,"제주민속촌, 봄맞이 초가지붕 잇기 한창",국문,"제주민속촌, 봄맞이 초가지붕 잇기 한창",,제주특별자치도 제주시 삼도2동 1045-1,제주특별자치도 제주시 관덕로 25,33.513855,126.521774,y,5,,323,,0,3,0,0,4,y,y,n,y,y,,y,y,y,m,m,m,y,y,y,y,y,y,,,,anonymous,2018-02-12,anonymous,2025-03-05,0,651,,63166,n,2018-02-12,2018-02-12,2018-02-12,2018-02-12,n,n,n,n,,,,,,,,,,,,,,,
CNTS_000000000019948,관광지,쇠소깍해양레저타운,국문,쇠소깍해양레저타운,,제주특별자치도 서귀포시 하효동 999,제주특별자치도 서귀포시 쇠소깍로 151-8 (하효동),33.250526,126.62091,y,3,,18323,,1,1,72,0,0,y,y,y,y,y,2019-09-06 16:29,y,y,y,y,y,y,y,y,y,y,y,y,2019-09-06,2019-09-06,2019-09-06,anonymous,2016-10-31,anonymous,2025-03-05,9,36654,,,n,2016-10-31,2016-10-31,2016-10-31,2016-10-31,y,y,y,y,1,y,,y,,y,,y,,2019-09-06,,2019-09-06,,y,
CONT_000000000500387,관광지,수악 (물오름),국문,수악 (물오름),,제주특별자치도 서귀포시 남원읍 하례리 산 10,제주특별자치도 서귀포시 남원읍 516로 1042,33.3616666,126.5291666,y,,,7312,,0,0,31,0,0,y,y,y,y,y,2019-07-12 10:35,y,y,y,y,y,y,y,y,y,y,y,y,2019-07-22,2019-07-22,2019-07-22,anonymous,2016-05-30,anonymous,2025-03-05,0,14624,,,n,2016-05-30,2016-05-30,2016-05-30,2016-05-30,y,y,y,y,,y,,y,,y,,y,,2019-07-22,,2019-07-22,,y,
CNTS_000000000022142,숙박,펜션 에덴호스텔,국문,펜션 에덴호스텔,,제주특별자치도 제주시 용담3동 2382,제주특별자치도 제주시 서해안로 456-12,33.5184357,126.4893095,y,,,1475,,0,0,0,0,0,y,y,y,y,y,2019-07-18 10:36,y,y,y,y,y,y,y,y,y,y,y,y,2019-07-18,2019-07-18,2019-07-18,anonymous,2017-07-12,anonymous,2025-03-05,0,2950,,63114,n,2017-07-12,2017-07-12,2017-07-12,2017-07-12,y,y,y,y,,y,,y,,y,,y,,2019-07-18,,2019-07-18,,y,
CNTS_000000000021903,숙박,제주 해피펜션,국문,제주 해피펜션,,제주특별자치도 제주시 외도2동 317-1,제주특별자치도 제주시 월대1길 4,33.49411,126.43378,y,,blog.naver.com/happycho25,1162,,0,0,2,0,0,y,y,y,y,y,2019-11-20 17:26,y,y,y,m,m,m,y,y,y,y,y,y,,,,anonymous,2017-04-25,anonymous,2025-03-03,0,2324,13355821,63068,n,2017-04-25,2017-04-25,2017-04-25,2017-04-25,y,n,n,n,,,,,,,,,,,,,,,
CONT_000000000501391,음식점,탐라 뚝배기,국문,탐라 뚝배기,,제주특별자치도 서귀포시 표선면 표선리 879,제주특별자치도 서귀포시 표선면 표선백사로 127,33.32677,126.83669,y,,,3617,,0,0,13,0,0,y,y,y,y,y,2019-09-11 13:10,y,y,y,y,y,y,y,y,y,y,y,y,2019-09-11,2019-09-11,2019-09-11,anonymous,2016-05-30,anonymous,2025-03-03,3,7234,9260635,63629,n,2016-05-30,2016-05-30,2016-05-30,2016-05-30,y,y,y,y,,y,,y,,y,,y,,,,2022-12-07,,y,
CONT_000000000501399,음식점,토담골,국문,토담골,,제주특별자치도 제주시 이도이동 1965-11,제주특별자치도 제주시 신설로 28,33.4933442,126.5434175,y,,,2405,,0,0,4,0,0,y,y,y,y,y,2019-09-09 13:19,y,y,y,y,y,y,y,y,y,y,y,y,2019-09-09,2019-09-09,2019-09-09,anonymous,2016-05-30,anonymous,2025-03-04,0,4810,,,n,2016-05-30,2016-05-30,2016-05-30,2016-05-30,y,y,y,y,,y,,y,,y,,y,,,,2022-12-07,,y,
CNTS_000000000020277,관광지,공천포,국문,공천포,,제주특별자치도 서귀포시 남원읍 신례리,제주특별자치도 서귀포시 남원읍 신례리,33.26769,126.645996,y,4,,5771,,0,9,29,0,0,y,y,y,y,y,2019-07-15 11:32,y,y,y,m,m,m,y,y,y,y,y,y,,,,anonymous,2016-11-16,anonymous,2025-03-05,2,11587,,,n,2016-11-16,2016-11-16,2016-11-16,2016-11-16,y,n,n,n,18,,,,,,,,,,,,,,
CNTS_200000000014432,축제/행사,휴애리 유채꽃 축제,국문,휴애리 유채꽃 축제,,제주특별자치도 서귀포시 남원읍 신례리 2081,제주특별자치도 서귀포시 남원읍 신례동로 256,33.299995,126.6297939,y,0,,7322,,1,0,15,0,0,y,y,y,y,y,2023-01-12 9:21,,,,m,m,m,,,,,,,,,,iamsunon,2023-01-12,iamsunon,2025-03-05,6,14647,,,n,2023-01-12,,,,y,n,n,n,0,,,m,m,,,,,,,,,n,n
CNTS_300000000012755,테마여행,세월을 품은 제주 <노포투어> ,국문,세월을 품은 제주 <노포투어> ,,,,,,y,0,,1985,,3,0,1,0,0,y,y,y,y,y,2023-09-05 10:24,,,,m,m,m,,,,,,,,,,jto0900045,2023-09-04,jto0900045,2025-03-03,1,3979,,,n,2023-09-04,,,,y,n,n,n,0,,,m,m,,,,,,,,,n,n
CONT_000000000501159,음식점,갤러리앤카페고팡,국문,갤러리앤카페고팡,,제주특별자치도 제주시 한림읍 금능남로 15,제주특별자치도 제주시 한림읍 금능남로 15,33.38652,126.23282,y,,www.hue-gopang.com,1921,,2,0,0,0,0,y,y,n,y,y,,y,y,y,y,y,y,n,n,n,y,y,y,,,,anonymous,2016-05-30,anonymous,2022-07-06,0,3848,,,n,2016-05-30,2016-05-30,2016-05-30,2016-05-30,n,n,n,n,,y,,y,,n,,y,,,,2019-02-25,,n,
CONT_000000000500560,관광지,제주승마공원,국문,제주승마공원,,제주특별자치도 제주시 애월읍 유수암리 1175,제주특별자치도 제주시 애월읍 녹고메길 152-1,33.4052867,126.405382,y,5,https://www.instagram.com/jeju_horse_riding_park__/,32612,,2,1,74,0,0,y,y,y,y,y,2019-12-19 17:10,y,y,y,y,y,y,y,y,y,y,y,y,2019-12-19,2019-12-19,2019-12-20,anonymous,2016-05-30,anonymous,2025-03-05,31,65235,,,n,2016-05-30,2016-05-30,2016-05-30,2016-05-30,y,y,y,y,,y,y,y,y,y,y,y,y,,,2022-11-30,2022-11-30,y,y
CONT_000000000501163,음식점,골막식당,국문,골막식당,,제주특별자치도 제주시 이도이동 362-1,제주특별자치도 제주시 천수로 12,33.5024655,126.5384668,y,5,,6140,,2,2,55,0,0,y,y,y,y,y,2019-10-02 11:04,y,y,y,y,y,y,y,y,y,y,y,y,2019-10-02,2019-10-02,2019-10-02,anonymous,2016-05-30,anonymous,2025-03-05,4,12296,4034095,,n,2016-05-30,2016-05-30,2016-05-30,2016-05-30,y,y,y,y,1,y,,y,,y,,y,,,,2022-12-06,,y,
CNTS_000000000019089,관광지,오름터 민속마을,국문,오름터 민속마을,,제주특별자치도 서귀포시 표선면 성읍리 599-1,제주특별자치도 서귀포시 표선면 성읍정의현로 99,33.391445,126.80072,y,,,7345,,1,0,31,0,0,y,y,y,y,y,2019-07-12 10:50,y,y,y,y,y,y,y,y,y,y,y,y,2019-07-23,2019-07-23,2019-07-23,anonymous,2016-10-19,anonymous,2025-03-04,2,14693,,63624,n,2016-10-19,2016-10-19,2016-10-19,2016-10-19,y,y,y,y,,y,,y,,y,,y,,2019-07-23,,2019-07-23,,y,
CNTS_000000000021969,숙박,동막골펜션,국문,동막골게스트하우스,,제주특별자치도 서귀포시 안덕면 덕수리 190,제주특별자치도 서귀포시 안덕면 서광서문로 55-7,33.28357,126.323204,y,,,1724,,0,0,1,0,0,y,y,y,y,y,2019-06-21 14:00,y,y,y,y,y,y,y,y,y,y,y,y,,,,anonymous,2017-06-02,anonymous,2025-02-28,0,3448,,63527,n,2017-06-02,2017-06-02,2017-06-02,2017-06-02,n,n,n,n,,y,,y,,y,,y,,,,2022-10-27,,n,
CNTS_300000000012737,축제/행사,입맛도심 (TASTY TOWN TOUR),국문,입맛도심 (TASTY TOWN TOUR),,,,,,y,0,,831,,1,0,1,0,0,y,y,n,y,y,2023-08-25 18:04,,,,m,m,m,,,,,,,,,,9900022,2023-08-25,9900022,2023-12-15,0,1665,,,n,2023-08-25,,,,y,n,n,n,0,,,m,m,,,,,,,,,n,n
CNTS_300000000012775,축제/행사,2023 한국 치유관광 페스타 - 제주에서 가을이 특별한 이유,국문,2023 한국 치유관광 페스타 - 제주에서 가을이 특별한 이유,,,,,,y,0,,2874,,3,0,0,0,0,y,y,y,y,y,2023-09-25 16:07,,,,m,m,m,,,,,,,,,,alexportal,2023-09-25,alexportal,2025-03-02,0,5757,,,n,2023-09-25,,,,y,n,n,n,0,,,m,m,,,,,,,,,n,n
CONT_000000000501194,음식점,다래향,국문,다래향,,제주특별자치도 제주시 조천읍 함덕리 3132-1,제주특별자치도 제주시 조천읍 조함해안로 428-4,33.5457967,126.6607519,y,4,,4833,,0,2,12,0,0,y,y,y,y,y,2019-09-09 15:15,y,y,y,y,y,y,y,y,y,y,y,y,2019-09-09,2019-09-09,2019-09-09,anonymous,2016-05-30,anonymous,2025-03-05,1,9676,8994464,,n,2016-05-30,2016-05-30,2016-05-30,2016-05-30,y,y,y,y,3,y,,y,,y,,y,,,,2022-12-07,,y,
CONT_000000000500405,관광지,쌍용굴(한림공원),국문,쌍용굴(한림공원),,제주특별자치도 제주시 한림읍 협재리 2487,제주특별자치도 제주시 한림읍 한림로 300,33.3894949,126.2396825,y,5,,20202,,2,1,104,0,0,y,y,y,y,y,2019-08-28 9:17,y,y,y,y,y,y,y,y,y,y,y,y,2019-08-28,2019-08-28,2019-08-28,anonymous,2016-05-30,anonymous,2025-03-05,5,40415,11742869,,n,2016-05-30,2016-05-30,2016-05-30,2016-05-30,y,y,y,y,5,y,,y,,y,,y,,2019-08-28,,2019-08-28,,y,
CONT_000000000501179,음식점,길벗식당,국문,길벗식당,,제주특별자치도 제주시 노형동 1020-2,제주특별자치도 제주시 월광로 162,33.4925136,126.4750372,y,,,2860,,0,0,6,0,0,y,y,y,y,y,2019-09-09 16:03,y,y,y,y,y,y,n,n,y,y,y,y,,,,anonymous,2016-05-30,anonymous,2025-03-01,3,5720,9247742,,n,2016-05-30,2016-05-30,2016-05-30,2016-05-30,y,n,n,n,,y,,y,,n,,y,,,,2019-02-25,,n,
CONT_000000000500846,숙박,라메종베니 두지엠,국문,라메종베니 두지엠,,제주특별자치도 서귀포시 성산읍 환해장성로 925,제주특별자치도 서귀포시 성산읍 환해장성로 925,33.43353,126.915726,y,,blog.naver.com/ghostface78,1236,,0,0,0,0,0,y,y,y,m,y,,y,y,y,m,m,m,y,y,y,y,y,y,,,,anonymous,2016-05-30,anonymous,2022-02-14,0,2472,7954610,,n,2016-05-30,2016-05-30,2016-05-30,2016-05-30,n,n,n,n,,y,,m,,y,,y,,,,2019-02-25,,n,
CNTS_000000000022133,숙박,비오하우스,국문,비오하우스,,제주특별자치도 제주시 구좌읍 월정리 567-1,제주특별자치도 제주시 구좌읍 월정3길 53-5,33.55612,126.79461,y,,,2345,,0,0,2,0,0,y,y,y,y,y,2019-06-21 13:38,y,y,y,y,y,y,y,y,y,y,y,y,,,,anonymous,2017-07-11,anonymous,2025-02-24,1,4690,13350263,63358,n,2017-07-11,2017-07-11,2017-07-11,2017-07-11,n,n,n,n,,y,,y,,y,,y,,,,2022-11-03,,n,
CNTS_200000000007232,축제/행사,금능원담축제,국문,금능원담축제,,,,,,y,0,,0,,0,0,0,0,0,y,y,y,m,y,,,,,m,m,m,,,,,,,,,,pms0319,2018-07-16,pms0319,2018-07-16,0,,,,n,2018-07-16,,,,y,n,n,n,0,,,,,,,,,,,,,,
CONT_000000000501141,숙박,더캐슬,국문,더캐슬,,제주특별자치도 제주시 애월읍 애월해안로 592,,33.4782,126.36708,y,,,787,,0,0,0,0,0,y,y,n,y,y,,y,y,y,y,y,y,n,n,n,y,y,y,,,,anonymous,2016-05-30,anonymous,2022-02-14,0,1574,7954606,,n,2016-05-30,2016-05-30,2016-05-30,2016-05-30,n,n,n,n,,y,,y,,n,,y,,,,2019-02-25,,n,
CONT_000000000500553,관광지,제주민속촌,국문,제주민속촌,,제주특별자치도 서귀포시 표선면 표선리 40-1,제주특별자치도 서귀포시 표선면 민속해안로 631-34,33.3225098,126.8418176,y,5,https://www.instagram.com/jejufolk/,76901,,11,39,812,0,6,y,y,y,y,y,2019-09-03 14:19,y,y,y,y,y,y,y,y,y,y,y,y,2019-09-03,2019-09-03,2019-09-03,anonymous,2016-05-30,anonymous,2025-03-05,18,154030,,,n,2016-05-30,2016-05-30,2016-05-30,2016-05-30,y,y,y,y,69,y,y,y,y,y,y,y,y,,,2022-11-30,2022-11-30,y,y
CONT_000000000501249,음식점,민봉태중화요리,국문,민봉태중화요리,,제주특별자치도 제주시 연삼로 776 (화북이동),제주특별자치도 제주시 연삼로 776 (화북이동),33.51155,126.56878,y,,,2932,,0,0,7,0,0,y,y,y,y,y,2019-09-11 15:04,y,y,y,y,y,y,y,y,y,y,y,y,2019-09-11,2019-09-11,2019-09-11,anonymous,2016-05-30,anonymous,2025-03-01,0,5864,9410150,,n,2016-05-30,2016-05-30,2016-05-30,2016-05-30,y,y,y,y,,y,,y,,y,,y,,,,2022-12-07,,y,
CONT_000000000501287,음식점,세자매식당,국문,세자매식당,,제주특별자치도 서귀포시 신서귀로 11 민우상가 102호(법환동),제주특별자치도 서귀포시 신서귀로 11 민우상가 102호(법환동),33.25098,126.510124,y,,,3162,,1,0,18,0,0,y,y,y,y,y,2019-10-04 10:15,y,y,y,y,y,y,y,y,y,y,y,y,2019-10-04,2019-10-04,2019-10-04,anonymous,2016-05-30,anonymous,2025-03-04,0,6327,9261550,,n,2016-05-30,2016-05-30,2016-05-30,2016-05-30,y,y,y,y,,y,,y,,y,,y,,,,2022-12-07,,y,
CONT_000000000500055,관광지,"과오름(큰오름, 샛오름, 말젯오름)",국문,"과오름(큰오름, 샛오름, 말젯오름)",,제주특별자치도 제주시 애월읍 곽지리 산 1,제주특별자치도 제주시 애월읍 곽지리 산 1,33.44657762,126.3238801,y,,,2279,,0,0,1,0,0,y,y,n,y,y,2019-07-22 11:47,y,y,y,y,y,y,n,n,n,y,y,y,2019-07-22,2019-07-22,2019-07-22,anonymous,2016-05-30,anonymous,2022-07-06,1,4558,,,n,2016-05-30,2016-05-30,2016-05-30,2016-05-30,y,y,y,y,,y,,y,,n,,y,,2019-07-22,,2019-07-22,,y,
CNTS_200000000014588,테마여행,봄에도 즐기는 동백 <신흥2리 동백마을>,국문,봄에도 즐기는 동백 <신흥2리 동백마을>,,,,,,y,0,,2151,,0,0,0,0,0,y,y,y,y,y,2023-02-15 13:42,,,,m,m,m,,,,,,,,,,jto0900045,2023-02-15,jto0900045,2025-03-03,0,4302,,,n,2023-02-15,,,,y,n,n,n,0,,,m,m,,,,,,,,,n,n
CNTS_000000000020982,관광지,신양포구,국문,신양포구,,제주특별자치도 서귀포시 성산읍 고성리,제주특별자치도 서귀포시 성산읍 고성리,33.444576,126.9095,y,,,2960,,0,0,1,0,0,y,y,y,y,y,2019-09-03 16:28,y,y,y,m,m,m,y,y,y,y,y,y,,,,anonymous,2016-12-14,anonymous,2025-03-03,1,5920,,,n,2016-12-14,2016-12-14,2016-12-14,2016-12-14,y,n,n,n,,,,,,,,,,,,,,,
CONT_000000000500326,관광지,서귀포시립기당미술관,국문,서귀포시립기당미술관,,제주특별자치도 서귀포시 서홍동 621,제주특별자치도 서귀포시 남성중로153번길 15,33.244656,126.551796,y,,,12167,,0,0,24,0,0,y,y,y,y,y,2019-07-24 11:48,y,y,y,y,y,y,y,y,y,y,y,y,2019-07-24,2019-07-24,2019-07-24,anonymous,2016-05-30,anonymous,2025-03-04,5,24334,,63594,n,2016-05-30,2016-05-30,2016-05-30,2016-05-30,y,y,y,y,,y,,y,,y,,y,,,,2022-11-28,,y,
CNTS_000000000019007,관광지,제주올레 12코스,국문,제주올레 12코스,,제주특별자치도 서귀포시 대정읍 신도리 2883-2,제주특별자치도 서귀포시 대정읍 신도리 2883-2,33.286324,126.171646,y,5,,13049,,3,1,10,0,0,y,y,y,y,y,2019-09-06 15:32,y,y,y,y,y,y,y,y,y,y,y,y,2019-09-06,2019-09-06,2019-09-06,anonymous,2016-10-18,anonymous,2025-03-05,1,26112,,,n,2016-10-18,2016-10-18,2016-10-18,2016-10-18,y,y,y,y,2,y,,y,,y,,y,,2019-09-06,,2019-09-06,,y,
CNTS_300000000012704,숙박,제주블루앤씨펜션,국문,제주블루앤씨펜션,,제주특별자치도 서귀포시 성산읍 삼달리 1991,제주특별자치도 서귀포시 성산읍 서성일로 188-18,33.4027582,126.8148563,y,0,,629,,3,0,2,0,0,y,y,y,y,y,2023-08-29 15:35,,,,m,m,m,,,,,,,,,,olaolab,2023-08-18,olaolab,2025-02-28,0,1267,,,n,2023-08-18,,,,y,n,n,n,0,,,m,m,,,,,,,,,n,n
CNTS_000000000020657,음식점,땅꼬분식 뷔페,국문,땅꼬분식 뷔페,,제주특별자치도 제주시 조천읍 조천리 686-2,제주특별자치도 제주시 조천읍 조천18길 50-9,33.537205,126.645424,y,3,,5054,,0,1,13,0,0,y,y,n,y,y,2019-09-09 14:18,y,y,y,m,m,m,y,y,y,y,y,y,,,,anonymous,2016-11-24,anonymous,2025-03-05,5,10113,,,n,2016-11-24,2016-11-24,2016-11-24,2016-11-24,y,n,n,n,1,,,,,,,,,,,,,,
CNTS_000000000020690,숙박,골든튤립호텔,국문,골든튤립호텔,,제주특별자치도 제주시 조천읍 함덕리 1269-19,제주특별자치도 제주시 조천읍 조함해안로 504,33.54239,126.66692,y,5,,116,,0,2,1,0,0,y,y,y,m,y,,y,y,y,m,m,m,y,y,y,y,y,y,,,,anonymous,2016-11-25,anonymous,2025-03-05,0,242,,63333,n,2016-11-25,2016-11-25,2016-11-25,2016-11-25,n,n,n,n,4,,,,,,,,,,,,,,
CONT_000000000500180,관광지,마오름(맞보기)(안덕),국문,마오름(맞보기)(안덕),,제주특별자치도 서귀포시 안덕면 산록남로,제주특별자치도 서귀포시 안덕면 산록남로,33.325733,126.40013,y,,,900,,0,0,0,0,0,y,y,n,y,y,2019-07-22 10:59,y,y,y,y,y,y,n,n,n,y,y,y,2019-07-22,2019-07-22,2019-07-22,anonymous,2016-05-30,anonymous,2022-10-06,0,1800,,,n,2016-05-30,2016-05-30,2016-05-30,2016-05-30,y,y,y,y,,y,,y,,n,,y,,2019-07-22,,2019-07-22,,y,
CNTS_300000000012712,관광지,댕댕스위트,국문,댕댕스위트,,제주특별자치도 제주시 애월읍 하귀1리 117-1,제주특별자치도 제주시 애월읍 하귀9길 2,33.4865061,126.4145086,y,0,http://www.instagram.com/dd_s_weet,223,,1,0,1,0,0,y,y,y,y,y,2023-08-29 16:21,,,,m,m,m,,,,,,,,,,olaolab00,2023-08-22,olaolab00,2025-03-05,0,449,,,n,2023-08-22,,,,y,n,n,n,0,,,m,m,,,,,,,,,n,n
CNTS_000000000021190,음식점,협재해녀의집,국문,협재해녀의집,,제주특별자치도 제주시 한림읍 협재리 1459-2,제주특별자치도 제주시 한림읍 협재3길 19,33.39883,126.24401,y,5,,19364,,4,6,152,0,0,y,y,y,y,y,2019-11-07 9:29,y,y,y,y,y,y,y,y,y,y,y,y,2019-11-07,2019-11-07,2019-11-07,anonymous,2016-12-22,anonymous,2025-03-05,7,38770,8965119,63011,n,2016-12-22,2018-11-05,2018-11-05,2018-11-05,y,y,y,y,12,y,,y,,y,,y,,2019-11-07,,2019-11-07,,y,
CNTS_000000000020301,관광지,클럽나인브릿지,국문,클럽나인브릿지,,제주특별자치도 서귀포시 안덕면 광평리 산 15,제주특별자치도 서귀포시 안덕면 광평로 34-156,33.3420536,126.4046382,y,5,,5306,,0,2,5,0,0,y,y,y,y,y,2019-07-25 10:02,y,y,y,t,t,t,y,y,y,y,y,y,,,,anonymous,2016-11-17,anonymous,2025-03-05,0,10622,,,n,2016-11-17,2016-11-17,2016-11-17,2016-11-17,y,n,n,n,3,y,,t,,y,,y,,,,2019-02-25,,n,
CNTS_300000000012733,축제/행사,2023 휴애리 핑크뮬리 축제_삭제요청,국문,2023 휴애리 핑크뮬리 축제_삭제요청,,,,,,y,0,,0,,0,0,0,0,0,y,y,n,w,y,,,,,m,m,m,,,,,,,,,,lanyo,2023-08-23,lanyo,2023-08-23,0,,,,n,2023-08-23,,,,y,n,n,n,0,,,m,m,,,,,,,,,n,n
CNTS_300000000012735,테마여행,아웃도어 미션게임 <탐라인제주-Part1. 용두암게이트>,국문,아웃도어 미션게임 <탐라인제주-Part1. 용두암게이트>,,,,,,y,0,,1060,,0,0,0,0,0,y,y,y,y,y,2023-08-24 13:45,,,,m,m,m,,,,,,,,,,lanyo,2023-08-23,lanyo,2025-03-04,0,2120,,,n,2023-08-23,,,,y,n,n,n,0,,,m,m,,,,,,,,,n,n
CNTS_000000000020305,음식점,치저스,국문,치저스,,제주특별자치도 제주시 구좌읍 송당리 1581-1,제주특별자치도 제주시 구좌읍 비자림로 1785,33.4684316,126.7740314,y,5,,5435,,0,6,49,0,0,y,y,y,y,y,2019-10-02 11:34,y,y,y,m,m,m,y,y,y,y,y,y,,,,anonymous,2016-11-17,anonymous,2025-03-05,1,10900,,63364,n,2016-11-17,2016-11-17,2016-11-17,2016-11-17,y,n,n,n,12,,,,,,,,,,,,,,
CONT_000000000501296,음식점,신옛촌,국문,신옛촌,,제주특별자치도 서귀포시 안덕면 사계리 863-7,제주특별자치도 서귀포시 안덕면 사계로 187-6,33.247074,126.302536,y,3,,4134,,0,1,12,0,0,y,y,y,y,y,2019-04-08 15:26,y,y,y,y,y,y,y,y,y,y,y,y,,,,anonymous,2016-05-30,anonymous,2025-03-05,0,8273,,63528,n,2016-05-30,2016-05-30,2016-05-30,2016-05-30,y,n,n,n,2,y,,y,,y,,y,,,,2019-02-25,,n,
CNTS_200000000013595,음식점,가든이다,국문,가든이다,,제주특별자치도 서귀포시 중문동 1703-1,제주특별자치도 서귀포시 중문상로 86,33.2555778,126.4278239,y,0,,751,,2,0,3,0,0,y,y,y,y,y,2022-07-06 17:08,y,,,y,m,m,y,,,y,,,2022-07-07,,,iamsunon,2022-07-06,iamsunon,2025-03-04,1,1508,,,n,2022-07-06,2022-07-07,,,y,y,n,n,0,,,m,m,,,,,,,,,n,n
CNTS_000000000020335,숙박,너를만나행복해,국문,너를만나행복해,,제주특별자치도 제주시 구좌읍 하도리 3209-3,제주특별자치도 제주시 구좌읍 면수2길 7,33.522026,126.86841,y,4,,4003,,2,4,2,0,0,y,y,y,m,y,,y,y,y,m,m,m,y,y,y,y,y,y,,,,anonymous,2016-11-18,anonymous,2025-03-05,0,8032,,63362,n,2016-11-18,2016-11-18,2016-11-18,2016-11-18,n,n,n,n,10,,,,,,,,,,,,,,
CONT_000000000500556,관광지,제주빅볼랜드,국문,제주빅볼랜드,,제주특별자치도 제주시 구좌읍 송당리 산164-4,제주특별자치도 제주시 구좌읍 송당리 산164-4,33.443204,126.7749339,y,5,,51971,,6,2,209,0,1,y,y,y,y,y,2019-07-22 10:52,y,y,y,y,y,y,y,y,y,y,y,y,2019-07-22,2019-07-22,2019-07-22,anonymous,2016-05-30,anonymous,2025-03-05,32,103970,,63041,n,2016-05-30,2016-05-30,2016-05-30,2016-05-30,y,y,y,y,,y,,y,,y,,y,,,,2022-11-30,,y,
CNTS_000000000020390,숙박,빠담빠담게스트하우스,국문,빠담빠담게스트하우스,,제주특별자치도 서귀포시 표선면 표선리 2093,제주특별자치도 서귀포시 표선면 돈오름로 198-4,33.329624,126.81827,y,5,,5047,,1,5,2,0,0,y,y,y,y,y,2019-06-26 9:50,y,y,y,y,y,y,y,y,y,y,y,y,,,,anonymous,2016-11-18,anonymous,2025-03-05,1,10122,8705742,,n,2016-11-18,2016-11-18,2016-11-18,2016-11-18,y,n,y,y,3,y,,y,,y,,y,,,,2020-08-31,,y,
CNTS_000000000021611,음식점,강정해녀의집,국문,강정해녀의집,,제주특별자치도 서귀포시 강정동 4691,제주특별자치도 서귀포시 말질로 270,33.2292539,126.4760412,y,,,4603,,0,0,17,0,0,y,y,y,y,y,2019-10-02 11:39,y,y,y,m,m,m,y,y,y,y,y,y,,,,anonymous,2017-01-01,anonymous,2025-03-04,1,9206,,63563,n,2017-01-01,2017-01-01,2017-01-01,2017-01-01,y,n,n,n,,,,,,,,,,,,,,,
CNTS_000000000020353,음식점,이성필 커피볶는집,국문,이성필 커피볶는집,,제주특별자치도 제주시 이도2동 광양8길 1,제주특별자치도 제주시 이도2동 광양8길 1,33.499733,126.52797,y,5,,1105,,0,1,2,0,0,y,y,y,y,y,2019-09-11 15:34,y,y,y,m,m,m,y,y,y,y,y,y,,,,anonymous,2016-11-18,anonymous,2025-03-05,0,2215,,,n,2016-11-18,2016-11-18,2016-11-18,2016-11-18,y,n,n,n,3,,,,,,,,,,,,,,
CNTS_000000000022039,쇼핑,더아일랜더,국문,더아일랜더,,제주특별자치도 제주시 삼도이동 967,제주특별자치도 제주시 관덕로4길 7,33.5123979,126.521371,y,5,blog.naver.com/kui3033,16687,,5,2,57,0,0,y,y,y,y,y,2019-11-13 17:23,y,y,y,y,y,y,y,y,y,y,y,y,2019-11-13,2019-11-13,2019-11-13,anonymous,2017-06-28,anonymous,2025-03-05,8,33399,7812750,,n,2017-06-28,2017-06-28,2017-06-28,2017-06-28,y,y,y,y,,y,,y,,y,,y,,2019-11-13,,2019-11-13,,y,
CNTS_000000000022057,음식점,명당양과,국문,명당양과,,제주특별자치도 제주시 노형동 724-1,제주특별자치도 제주시 원노형로 83,33.4812749,126.4850048,y,5,https://www.facebook.com/mdang1980/,13775,,19,9,75,0,0,y,y,y,y,y,2018-11-02 16:05,y,y,y,y,y,y,y,y,y,y,y,y,2018-11-02,2018-11-06,2018-11-02,anonymous,2017-07-04,anonymous,2025-03-05,6,27652,9378615,,n,2017-07-04,2018-11-02,2018-11-02,2018-11-02,y,y,y,y,,y,,y,,y,,y,,,,2019-02-25,,y,
CNTS_000000000019613,관광지,제주카약,국문,제주카약,,제주특별자치도 제주시 조천읍 함덕리 207-1,제주특별자치도 제주시 조천읍 평사길 19,33.5437998,126.6739948,y,,,14408,,3,0,71,0,0,y,y,y,y,y,2019-07-24 11:45,y,y,y,y,y,y,y,y,y,y,y,y,2019-07-24,2019-07-24,2019-07-24,anonymous,2016-10-25,anonymous,2025-03-04,3,28825,,,n,2016-10-25,2016-10-25,2016-10-25,2016-10-25,y,y,y,y,,y,,y,,y,,y,,2019-07-24,,2019-07-24,,y,
CNTS_000000000020685,관광지,제주월드21(철거),국문,제주월드21,,제주특별자치도 제주시 건입동 1442,제주특별자치도 제주시 임항로 17,33.51673,126.52715,y,3,,12570,,3,2,41,0,0,y,y,n,y,y,2019-07-24 9:54,y,y,y,m,m,m,y,y,y,y,y,y,,,,anonymous,2016-11-25,anonymous,2025-03-05,5,25159,,63276,n,2016-11-25,2016-11-25,2016-11-25,2016-11-25,n,n,n,n,2,,,,,,,,,,,,,,
CNTS_000000000020698,음식점,한림로342쩜빵,국문,한림로342쩜빵,,제주특별자치도 제주시 한림읍 협재리 1750-3,제주특별자치도 제주시 한림읍 한림로 342,33.39386,126.240944,y,4,,131,,0,2,0,0,0,y,y,y,m,y,,y,y,y,m,m,m,y,y,y,y,y,y,,,,anonymous,2016-11-25,anonymous,2025-03-05,0,272,,63011,n,2016-11-25,2016-11-25,2016-11-25,2016-11-25,n,n,n,n,2,,,,,,,,,,,,,,
CONT_000000000501228,음식점,마중물삼계탕,국문,마중물삼계탕,,제주특별자치도 제주시 삼도일동 788-15,제주특별자치도 제주시 서사로 62-3,33.5068618,126.5197327,y,0,,3295,,0,0,0,0,0,y,y,y,y,y,2019-10-02 11:50,y,y,y,y,y,y,y,y,y,y,y,y,2019-10-02,2019-10-02,2019-10-02,anonymous,2016-05-30,anonymous,2025-03-04,0,6590,9449818,,n,2016-05-30,2016-05-30,2016-05-30,2016-05-30,y,y,y,y,,y,,y,,y,,y,,,,2022-12-07,,y,
CNTS_300000000013067,축제/행사,2024 워터밤 제주,국문,2024 워터밤 제주,,제주특별자치도 제주시 오라일동 1006,제주특별자치도 제주시 서광로2길 24,33.4949908,126.5177961,y,0,https://www.instagram.com/waterbomb_jeju_official,293,,0,0,0,0,0,y,y,y,y,y,2024-07-09 9:49,y,y,y,y,y,y,y,y,y,y,y,y,2024-09-26,2024-09-26,2024-09-26,arahan2,2024-07-08,arahan2,2025-03-05,0,586,,,n,2024-07-08,2024-09-25,2024-09-25,2024-09-25,y,y,y,y,0,y,y,y,y,y,y,y,y,2024-09-26,2024-09-26,2024-09-26,2024-09-25,y,y
CNTS_300000000013068,음식점,산라한,국문,산라한,,제주특별자치도 제주시 삼도이동 14-5,제주특별자치도 제주시 북성로 4,33.5158367,126.5239328,y,0,https://www.instagram.com/sanrahan_jeju/,46,,0,0,0,0,0,y,y,y,y,y,2024-07-11 9:28,y,y,y,y,y,y,y,y,y,y,y,y,2024-08-16,2024-08-14,2024-08-14,arahan,2024-07-08,arahan,2025-03-04,0,92,,,n,2024-07-08,2024-08-14,2024-08-14,2024-08-14,y,y,y,y,0,y,y,y,y,y,y,y,y,,,2024-08-19,2024-08-19,y,y
CNTS_000000000020492,음식점,늘봄흑돼지,국문,늘봄흑돼지,,제주특별자치도 제주시 노형동 2343-3,제주특별자치도 제주시 한라대학로 12,33.4792895,126.4728779,y,5,http://www.instagram.com/neulbom.jeju,10175,,3,4,69,0,1,y,y,y,y,y,2019-10-02 11:12,y,y,y,y,y,y,y,y,y,y,y,y,2019-10-02,2019-10-02,2019-10-02,anonymous,2016-11-22,anonymous,2025-03-05,1,20379,8939025,,n,2016-11-22,2016-11-22,2016-11-22,2016-11-22,y,y,y,y,3,y,,y,,y,,y,,2019-10-02,,2019-10-02,,y,
CNTS_000000000020355,숙박,동네형들게스트하우스,국문,동네형들게스트하우스,,제주특별자치도 서귀포시 성산읍 고성리 198,제주특별자치도 서귀포시 성산읍 신양로122번길 30-8,33.43624,126.92086,y,3,,1376,,0,1,1,0,0,y,y,y,m,y,,y,y,y,m,m,m,y,y,y,y,y,y,,,,anonymous,2016-11-18,anonymous,2025-03-05,0,2757,,,n,2016-11-18,2016-11-18,2016-11-18,2016-11-18,n,n,n,n,5,,,,,,,,,,,,,,
CNTS_000000000022624,숙박,제주베스트힐 펜션&글램핑,국문,제주베스트힐 펜션&글램핑,,제주특별자치도 제주시 조천읍 교래리 786-31,제주특별자치도 제주시 조천읍 남조로 2109-36,33.4276176,126.6665803,y,4,,4143,,2,1,3,0,0,y,y,y,y,y,2019-12-02 16:24,y,y,y,m,m,m,y,y,y,y,y,y,,,,anonymous,2017-09-29,anonymous,2025-03-05,0,8297,,,n,2017-09-29,2017-09-29,2017-09-29,2017-09-29,y,n,n,n,,,,,,,,,,,,,,,
CNTS_000000000021137,숙박,스테이지게스트하우스(폐업),국문,스테이지게스트하우스(폐업),,제주특별자치도 제주시 구좌읍 종달리 611,제주특별자치도 제주시 구좌읍 해맞이해안로 2361,33.49031,126.91084,y,,blog.naver.com/stagejeju,2427,,0,0,2,0,0,y,y,n,y,y,2019-12-02 16:29,y,y,y,m,m,m,y,y,y,y,y,y,,,,anonymous,2016-12-19,anonymous,2025-01-14,0,4854,,63364,n,2016-12-19,2016-12-19,2016-12-19,2016-12-19,y,n,n,n,,,,,,,,,,,,,,,
CNTS_000000000022257,관광지,타보카 월정리투명카약,국문,타보카 월정리투명카약,,제주특별자치도 제주시 구좌읍 월정리 1400-4,제주특별자치도 제주시 구좌읍 월정리 1400-4,33.56346,126.78025,y,5,,9286,,2,1,121,0,0,y,y,n,y,y,2019-11-22 11:11,y,y,y,m,m,m,y,y,y,y,y,y,,,,anonymous,2017-07-31,anonymous,2025-03-05,10,18583,,,n,2017-07-31,2017-07-31,2017-07-31,2017-07-31,y,n,n,n,3,,,,,,,,,,,,,,
CNTS_000000000022283,숙박,달빛정원게스트하우스,국문,달빛정원게스트하우스,,제주특별자치도 서귀포시 남원읍 태흥리 1342-1,제주특별자치도 서귀포시 남원읍 태위로852번길 7,33.283443,126.737625,y,,,569,,0,0,0,0,0,y,y,y,m,y,,y,y,y,m,m,m,y,y,y,y,y,y,,,,anonymous,2017-08-01,anonymous,2022-02-14,1,1138,,63617,n,2017-08-01,2017-08-01,2017-08-01,2017-08-01,n,n,n,n,,y,,m,,y,,y,,,,2019-02-25,,n,
CNTS_000000000020055,음식점,고메아일랜드,국문,고메아일랜드,,제주특별자치도 제주시 도남동 663-9,제주특별자치도 제주시 청사로 85,33.490288,126.5278,y,5,,2319,,0,1,4,0,0,y,y,n,y,y,2019-09-10 14:11,y,y,y,y,y,y,y,y,y,y,y,y,2019-09-10,2019-09-10,2019-09-10,anonymous,2016-11-04,anonymous,2025-03-05,0,4643,,63219,n,2016-11-04,2016-11-04,2016-11-04,2016-11-04,y,y,y,y,1,y,,y,,y,,y,,2019-09-10,,2019-09-10,,y,
CNTS_000000000021957,테마여행,제주로 디톡스하자 <‘수고했어 오늘도’ 나에게 주는 쉼의 선물>,국문,제주로 디톡스하자 <‘수고했어 오늘도’ 나에게 주는 쉼의 선물>,,,,0,0,y,5,,11003,,4,1,3,0,0,y,y,n,y,y,,y,y,y,y,y,y,n,n,n,y,y,y,,2019-02-27,,anonymous,2017-05-25,anonymous,2025-03-05,0,22023,,,n,2017-05-25,2017-05-25,2017-05-25,2017-05-25,n,n,n,n,,y,y,y,y,n,n,y,y,2019-02-27,2019-02-14,2019-02-27,2019-02-14,n,n
CONT_000000000500323,관광지,서귀포 축구공원,국문,서귀포 축구공원,,제주특별자치도 서귀포시 신효동 910,제주특별자치도 서귀포시 효돈순환로 311-29,33.2588393,126.6105252,y,,,1372,,0,0,1,0,0,y,y,n,y,y,2019-07-24 11:20,y,y,y,y,y,y,n,n,n,y,y,y,2019-07-24,2019-07-24,2019-07-24,anonymous,2016-05-30,anonymous,2022-07-06,3,2744,,,n,2016-05-30,2016-05-30,2016-05-30,2016-05-30,y,y,y,y,,y,,y,,n,,y,,2019-07-24,,2019-07-24,,y,
CNTS_000000000018301,음식점,우유부단,국문,우유부단,,제주특별자치도 제주시 한림읍 금악리 142-2,제주특별자치도 제주시 한림읍 금악동길 38,33.3476667,126.3282377,y,5,,23630,,14,38,272,0,1,y,y,y,y,y,2019-09-09 13:45,y,y,y,y,y,y,n,n,n,y,y,y,2018-12-05,2018-12-05,2018-12-05,anonymous,2016-10-06,anonymous,2025-03-05,5,47492,10716980,63021,n,2016-10-06,2016-10-06,2016-10-06,2016-10-06,y,n,n,n,51,y,,y,,n,,y,,,,2019-02-25,,n,
CNTS_000000000021948,테마여행,"2017년 6월에 놓치지 말아야 할 관광 10선 <이색적인 모험, 디스커버 제주 10>",국문,"6월에 놓치지 말아야 할 관광 10선 <이색적인 모험, 디스커버 제주 10>",,,,0,0,y,,,29028,,8,0,5,0,0,y,y,n,y,y,2018-04-20 14:13,y,y,y,m,m,m,y,y,y,y,y,y,,,,anonymous,2017-05-22,anonymous,2023-05-18,0,58080,,,n,2017-05-22,2017-05-22,2017-05-22,2017-05-22,n,n,n,n,,,,,,,,,,,,,,,
CNTS_000000000020057,음식점,저팔계깡통연탄구이,국문,저팔계깡통연탄구이,,제주특별자치도 제주시 조천읍 함덕리 1271,제주특별자치도 제주시 조천읍 신북로 531,33.5417,126.666756,y,5,,2195,,0,1,12,0,0,y,y,y,y,y,2019-09-10 11:29,y,y,y,m,m,m,y,y,y,y,y,y,,,,anonymous,2016-11-04,anonymous,2025-03-05,0,4395,9323698,63333,n,2016-11-04,2016-11-04,2016-11-04,2016-11-04,y,n,n,n,1,,,,,,,,,,,,,,
CONT_000000000501409,음식점,하와이새우트럭,국문,하와이새우트럭,,제주특별자치도 제주시 노형동 3792-5,제주특별자치도 제주시 노형13길 16,33.482337,126.478375,y,5,,3272,,0,1,28,0,0,y,y,n,y,y,2018-12-12 16:17,y,y,y,y,y,y,y,y,y,y,y,y,2018-12-12,2018-12-12,2018-12-12,anonymous,2016-05-30,anonymous,2025-03-05,1,6549,,,n,2016-05-30,2016-05-30,2016-05-30,2016-05-30,n,n,n,n,2,y,,y,,y,,y,,,,2022-12-08,,n,
CONT_000000000501246,음식점,물금,국문,물금,,제주특별자치도 제주시 임항로 49,,33.515636,126.53186,y,,,1009,,0,0,5,0,0,y,y,n,m,y,,y,y,y,m,m,m,y,y,y,y,y,y,,,,anonymous,2016-05-30,anonymous,2022-07-06,0,2018,,,n,2016-05-30,2016-05-30,2016-05-30,2016-05-30,n,n,n,n,,y,,m,,y,,y,,,,2019-02-25,,n,
CNTS_000000000022093,축제/행사,제 11회 제주국제크루즈포럼,국문,제 11회 제주국제크루즈포럼,,제주특별자치도 제주시 연동 263-15,제주특별자치도 제주시 노연로 80,33.4848645,126.4885577,y,,https://www.instagram.com/acf.jeju/,5933,,2,0,1,0,0,y,y,y,y,y,2019-07-08 15:31,y,y,y,y,w,y,n,n,n,y,y,y,2019-08-12,,2019-08-14,anonymous,2017-07-06,anonymous,2025-03-02,1,11872,,63547,n,2017-07-06,2017-07-06,2017-07-06,2017-07-06,y,n,n,n,,y,,y,,n,,y,,2019-08-13,,2019-08-13,,n,
CNTS_300000000012769,테마여행,지구별 MBTI여행자 <오감만족 제주 체험 여행>,국문,지구별 MBTI여행자 <오감만족 제주 체험 여행>,,,,,,y,0,,1623,,0,0,0,0,0,y,y,y,y,y,2023-09-19 16:52,y,y,y,y,y,y,y,y,y,y,y,y,2023-10-16,2023-10-16,2023-10-16,jto0900045,2023-09-19,jto0900045,2025-03-05,1,3246,,,n,2023-09-19,2023-10-16,2023-10-16,2023-10-16,y,y,y,y,0,y,,y,m,y,,y,,2023-10-16,,2023-10-16,,y,n
CNTS_000000000020952,관광지,지포뮤지엄,국문,지포뮤지엄,,제주특별자치도 서귀포시 성산읍 고성리 127-2,제주특별자치도 서귀포시 성산읍 섭지코지로 107,33.430576,126.92777,y,5,,13299,,5,1,31,0,0,y,y,n,y,y,2019-07-12 13:31,y,y,y,m,m,m,y,y,y,y,y,y,,,,anonymous,2016-12-14,anonymous,2025-03-05,4,26618,,63642,n,2016-12-14,2016-12-14,2016-12-14,2016-12-14,y,n,n,n,1,,,,,,,,,,,,,,
CONT_000000000500311,관광지,새신오름(신서악),국문,새신오름(신서악),,제주특별자치도 제주시 한경면 청수리 2661-4,제주특별자치도 제주시 한경면 청수리 2661-4,33.298912,126.23928,y,,,1343,,0,0,3,0,0,y,y,n,y,y,2019-07-12 10:37,y,y,y,y,y,y,n,n,n,y,y,y,2019-07-22,2019-07-22,2019-07-22,anonymous,2016-05-30,anonymous,2022-07-06,0,2686,,,n,2016-05-30,2016-05-30,2016-05-30,2016-05-30,y,y,y,y,,y,,y,,n,,y,,2019-07-22,,2019-07-22,,y,
CNTS_200000000014087,관광지,스타빌,국문,스타빌,,제주특별자치도 서귀포시 안덕면 광평리 산 31-1,제주특별자치도 서귀포시 안덕면 광평로 34-154,33.3390637,126.3953082,y,0,,2068,,0,0,5,0,0,y,y,y,y,y,2022-11-14 16:22,y,,,y,m,m,y,,,y,,,2022-12-14,,,iamsunon,2022-11-14,iamsunon,2025-03-05,0,4136,,,n,2022-11-14,2022-12-14,,,y,y,n,n,0,,,m,m,,,,,,,,,n,n
CNTS_200000000014088,관광지,앙데팡당(폐업),국문,앙데팡당(폐업),,제주특별자치도 제주시 애월읍 신엄리 2838,제주특별자치도 제주시 애월읍 신엄안3길 136-5,33.4736368,126.353732,y,0,https://www.instagram.com/idpd_works/,2021,,0,0,1,0,0,y,y,n,y,y,2022-11-14 16:27,y,,,y,m,m,y,,,y,,,2022-12-14,,,iamsunon,2022-11-14,iamsunon,2025-02-27,0,4042,,,n,2022-11-14,2022-12-14,,,y,y,n,n,0,,,m,m,,,,,,,,,n,n
CONT_000000000501069,숙박,제주필하우스,국문,제주필하우스,,제주특별자치도 제주시 조천읍 북촌리 1586-1,제주특별자치도 제주시 조천읍 일주동로 1415,33.545048,126.68642,y,,,1785,,0,0,0,0,0,y,y,y,y,y,2019-11-22 14:46,y,y,y,y,y,y,y,y,y,y,y,y,2019-11-22,2019-11-22,2019-11-22,anonymous,2016-05-30,anonymous,2025-03-01,1,3570,7257403,63339,n,2016-05-30,2016-05-30,2016-05-30,2016-05-30,y,y,y,y,,y,,y,,y,,y,,2019-11-22,,2019-11-22,,y,
CONT_000000000501300,음식점,아랑,국문,아랑,,"제주특별자치도 제주시 선덕로 5길 25(연동, 연미주택)","제주특별자치도 제주시 선덕로 5길 25(연동, 연미주택)",33.48745,126.50014,y,,,1824,,0,0,3,0,0,y,y,n,y,y,2019-10-04 10:32,y,y,y,y,y,y,n,n,n,y,y,y,2019-10-04,2019-10-04,2019-10-04,anonymous,2016-05-30,anonymous,2023-12-06,0,3648,,,n,2016-05-30,2016-05-30,2016-05-30,2016-05-30,y,y,y,y,,y,,y,,n,,y,,,,2022-04-16,,y,
CNTS_200000000013708,테마여행,리얼제주를 만나다! <어촌탐방-해녀>,국문,리얼제주를 만나다! <어촌탐방-해녀>,,,,,,y,4,,10292,,1,0,1,0,0,y,y,y,y,y,2022-08-10 11:17,y,y,y,y,y,y,y,y,y,y,y,y,2022-08-16,2022-10-25,2022-08-10,jto0900045,2022-08-10,jto0900045,2025-03-05,4,20587,,,n,2022-08-10,2022-08-16,2022-10-18,2022-08-10,y,y,y,y,0,y,y,y,y,y,n,y,y,,,2022-10-25,2022-08-16,y,y
CONT_000000000500401,관광지,신양해안도로,국문,신양해안도로,,제주특별자치도 서귀포시 성산읍 신고로,제주특별자치도 서귀포시 성산읍 신고로,33.431046,126.91553,y,,,6614,,2,0,51,0,0,y,y,y,y,y,2019-07-22 11:42,y,y,y,y,y,y,y,y,y,y,y,y,2019-07-22,2019-07-22,2019-07-22,anonymous,2016-05-30,anonymous,2025-03-04,0,13234,,,n,2016-05-30,2016-05-30,2016-05-30,2016-05-30,y,y,y,y,,y,,y,,y,,y,,2019-07-22,,2019-07-22,,y,
CNTS_200000000012527,테마여행,JEJU ISLAND’S CULTURE OF STONE,영문,JEJU ISLAND’S CULTURE OF STONE,,,,,,y,0,,11338,,0,0,2,0,0,,,,m,y,,y,y,y,y,y,y,y,y,y,y,y,y,2021-12-28,2022-01-24,2022-01-26,jto0900045,2021-12-28,jto0900045,2025-03-05,0,22676,,,n,,2021-12-28,2022-01-24,2022-01-26,n,y,y,y,0,y,,y,m,y,,y,,,,2022-02-16,,y,n
CNTS_000000000021895,축제/행사,토요일은 송당에서 놀자,국문,토요일은 송당에서 놀자,,제주특별자치도 제주시 구좌읍 송당리 1370-13,제주특별자치도 제주시 구좌읍 중산간동로 2240,33.471592,126.7823,y,,,3992,,1,0,2,0,0,y,y,n,y,y,,y,y,y,y,y,m,n,n,y,y,y,y,,,,anonymous,2017-04-13,anonymous,2022-02-14,0,7987,,63355,n,2017-04-13,2017-04-13,2017-04-13,2017-04-13,n,n,n,n,,y,,y,,n,,y,,,,2019-02-25,,n,
CONT_000000000500250,관광지,본태박물관,국문,본태박물관,,제주특별자치도 서귀포시 안덕면 상천리 380,제주특별자치도 서귀포시 안덕면 산록남로762번길 69,33.3038302,126.3925024,y,5,https://www.instagram.com/bontemuseum/,70282,,8,34,367,0,4,y,y,y,y,y,2019-08-28 14:47,y,y,y,y,y,y,y,y,y,y,y,y,2019-08-28,2019-08-28,2019-12-04,anonymous,2016-05-30,anonymous,2025-03-05,16,140758,,63525,n,2016-05-30,2016-05-30,2016-05-30,2016-05-30,y,y,y,y,57,y,y,y,y,y,y,y,y,,,2022-11-25,2022-11-25,y,y
CNTS_300000000012751,축제/행사,스트레스 제로 킹 in 제주,국문,스트레스 제로 킹 in 제주,,제주특별자치도 서귀포시 호근동 산 1,제주특별자치도 서귀포시 산록남로 2271,33.3025489,126.5245747,y,0,,565,,0,0,0,0,0,y,y,y,y,y,2023-08-31 18:13,,,,m,m,m,,,,,,,,,,rlaalr83,2023-08-30,rlaalr83,2025-02-27,0,1130,,,n,2023-08-30,,,,y,n,n,n,0,,,m,m,,,,,,,,,n,n
CNTS_000000000020205,음식점,해금강횟집,국문,해금강횟집,,제주특별자치도 제주시 건입동 1435-1,제주특별자치도 제주시 서부두길 28 (건입동),33.51896,126.5287,y,4,,4715,,0,2,6,0,0,y,y,y,y,y,2019-10-16 17:41,y,y,y,y,y,y,y,y,y,y,y,y,2019-10-16,2019-10-16,2019-10-16,anonymous,2016-11-15,anonymous,2025-03-05,0,9440,9034264,,n,2016-11-15,2016-11-15,2016-11-15,2016-11-15,y,y,y,y,7,y,,y,,y,,y,,2019-10-16,,2019-10-16,,y,
CNTS_000000000021513,숙박,한옥호텔 한라궁,국문,한라궁,,제주특별자치도 서귀포시 토평동 581-1,제주특별자치도 서귀포시 정방연로 6,33.24843,126.57835,y,1,,3680,,2,1,5,0,1,y,y,y,y,y,2019-06-19 17:20,y,y,y,y,m,m,y,y,y,y,y,y,2022-12-14,,,anonymous,2016-12-29,anonymous,2025-03-05,1,7371,9457741,63598,n,2016-12-29,2022-12-14,2016-12-29,2016-12-29,n,n,n,n,,,,,,,,,,,,,,,
CNTS_000000000021491,관광지,추사 유배길 - 2코스 인연의 길,국문,추사 유배길 - 2코스 인연의 길,,제주특별자치도 제주시 한경면 청수리 2186,제주특별자치도 제주시 한경면 낙수로 228-9,33.319798,126.23731,y,5,,3504,,0,1,11,0,0,y,y,y,y,y,,y,y,y,m,m,m,y,y,y,y,y,y,,,,anonymous,2016-12-28,anonymous,2025-03-05,2,7013,,63006,n,2016-12-28,2016-12-28,2016-12-28,2016-12-28,n,n,n,n,1,,,,,,,,,,,,,,
CNTS_300000000012758,축제/행사,2023성안올레걷기축제,국문,2023성안올레걷기축제,,제주특별자치도 제주시 일도일동 1247,제주특별자치도 제주시 중앙로3길 36,33.5151533,126.5283418,y,0,https://blog.naver.com/seonganolle,265,,0,0,0,0,0,y,y,y,y,y,2023-09-12 9:37,y,y,y,r,r,r,y,y,y,y,y,y,,,,changwon1031,2023-09-06,changwon1031,2025-03-03,0,530,,,n,2023-09-06,2023-11-28,2023-11-28,2023-11-28,y,y,y,y,0,y,,r,m,y,,y,,,,2023-11-28,,y,n
CNTS_000000000020243,음식점,산포식당,국문,산포식당,,제주특별자치도 서귀포시 성산읍 고성리 2129-1,제주특별자치도 서귀포시 성산읍 서성일로 1134,33.445087,126.899796,y,3,,5522,,0,1,14,0,0,y,y,y,y,y,2019-11-05 10:49,y,y,y,m,m,m,y,y,y,y,y,y,,,,anonymous,2016-11-16,anonymous,2025-03-05,0,11049,9420981,63641,n,2016-11-16,2016-11-16,2016-11-16,2016-11-16,y,n,n,n,6,,,,,,,,,,,,,,
CNTS_000000000020597,숙박,팜핑제주,국문,팜핑제주,,제주특별자치도 서귀포시 도순동 1303,제주특별자치도 서귀포시 중산간서로400번길 105,33.2688268,126.4730466,y,3,,4953,,1,1,1,0,0,y,y,y,y,y,2019-12-03 10:39,y,y,y,y,y,y,y,y,y,y,y,y,2019-12-03,2019-12-03,2019-12-03,anonymous,2016-11-24,anonymous,2025-03-05,1,9914,,,n,2016-11-24,2016-11-24,2016-11-24,2016-11-24,y,y,y,y,3,y,,y,,y,,y,,2019-12-03,,2019-12-03,,y,
CONT_000000000500888,숙박,바다올레,국문,바다올레,,제주 제주시 한림읍 한수7길 6-3,제주 제주시 한림읍 한수7길 6-3,33.422974,126.26406,y,,,1634,,0,0,0,0,0,y,y,y,m,y,,y,y,y,m,m,m,y,y,y,y,y,y,,,,anonymous,2016-05-30,anonymous,2022-02-14,0,3268,,,n,2016-05-30,2016-05-30,2016-05-30,2016-05-30,n,n,n,n,,y,,m,,y,,y,,,,2019-02-25,,n,
CNTS_200000000014528,테마여행,건강한 제주를 만드는 꿀TIP <친환경 제주여행-숙소편>,국문,건강한 제주를 만드는 꿀TIP <친환경 제주여행-숙소편>,,,,,,y,0,,2257,,0,0,0,0,0,y,y,y,y,y,2023-02-03 11:39,,,,m,m,m,,,,,,,,,,jto0900045,2023-02-01,jto0900045,2025-03-03,0,4514,,,n,2023-02-01,,,,y,n,n,n,0,,,m,m,,,,,,,,,n,n
CNTS_000000000021268,음식점,잠녀해녀촌,국문,잠녀해녀촌,,제주특별자치도 제주시 조천읍 함덕리 3150,제주특별자치도 제주시 조천읍 함덕5길 34,33.546357,126.6597032,y,3,,14901,,0,2,47,0,1,y,y,y,y,y,2018-12-05 9:59,y,y,y,y,y,y,y,y,y,y,y,y,2018-12-05,2018-12-05,2018-12-05,anonymous,2016-12-23,anonymous,2025-03-05,9,29812,4826335,63333,n,2016-12-23,2018-11-06,2018-11-06,2018-11-06,y,y,y,y,3,y,,y,,y,,y,,,,2019-02-25,,y,
CNTS_000000000021267,음식점,촌촌해녀촌,국문,촌촌해녀촌,,제주특별자치도 제주시 구좌읍 동복리 1502,제주특별자치도 제주시 구좌읍 동복로 35,33.55347,126.71021,y,5,,5204,,1,2,12,0,0,y,y,y,y,y,2019-10-14 15:27,y,y,y,y,y,y,y,y,y,y,y,y,2023-12-12,2023-12-12,2023-12-12,anonymous,2016-12-23,anonymous,2025-03-05,3,10421,9180028,63347,n,2016-12-23,2023-11-28,2023-11-28,2023-11-28,y,y,y,y,3,y,,y,,y,,y,,2023-12-06,,2023-11-28,,y,
CNTS_000000000021644,음식점,마라도별장식당,국문,마라도별장식당,,제주특별자치도 서귀포시 대정읍 가파리 697,제주특별자치도 서귀포시 대정읍 마라로101번길 43,33.118282,126.26671,y,,,1682,,0,0,1,0,0,y,y,y,y,y,2018-12-20 16:20,y,y,y,m,m,m,y,y,y,y,y,y,,,,anonymous,2017-01-03,anonymous,2025-03-03,0,3364,,63515,n,2017-01-03,2017-01-03,2017-01-03,2017-01-03,n,n,n,n,,,,,,,,,,,,,,,
CNTS_000000000019160,숙박,해변여행,국문,해변여행,,제주특별자치도 제주시 애월읍 하귀2리 2726,제주특별자치도 제주시 애월읍 가문동길 41-2,33.486088,126.392105,y,,,893,,0,0,0,0,0,y,y,y,y,y,2019-12-03 15:44,y,y,y,m,m,m,y,y,y,y,y,y,,,,anonymous,2016-10-19,anonymous,2025-02-23,0,1786,,63050,n,2016-10-19,2016-10-19,2016-10-19,2016-10-19,y,n,n,n,,,,,,,,,,,,,,,
CNTS_000000000019656,관광지,마원,국문,마원,,제주특별자치도 제주시 조천읍 선흘리 2107-2,제주특별자치도 제주시 조천읍 선흘리 2107-2,33.4593556,126.7033584,y,4,http://blog.naver.com/nbaa5876,9974,,0,2,25,0,1,y,y,y,y,y,2019-07-15 10:42,y,y,y,y,y,y,y,y,y,y,y,y,2019-07-23,2019-07-23,2019-07-23,anonymous,2016-10-26,anonymous,2025-03-05,1,19958,,,n,2016-10-26,2016-10-26,2016-10-26,2016-10-26,y,y,y,y,1,y,,y,,y,,y,,2019-07-23,,2019-07-23,,y,
CNTS_300000000012842,음식점,BHC치킨 연동점,국문,BHC치킨 연동점,,제주특별자치도 제주시 연동 260-20,제주특별자치도 제주시 삼무로 27,33.4901585,126.4895887,y,0,,1128,,0,0,1,0,0,y,y,y,y,y,2023-11-23 13:40,y,y,y,y,y,y,y,y,y,y,y,y,2023-12-05,2023-12-05,2023-12-12,goeun,2023-11-22,goeun,2025-03-04,0,2256,,,n,2023-11-22,2023-11-28,2023-11-28,2023-11-28,y,y,y,y,0,y,,y,m,y,,y,,2023-12-06,,2023-11-28,,y,n
CNTS_300000000012848,관광지,비케이브,국문,비케이브,,제주특별자치도 제주시 조천읍 선흘리 161-6,제주특별자치도 제주시 조천읍 동백로 122,33.5084448,126.7200224,y,0,,730,,0,0,2,0,0,y,y,y,y,y,2023-11-23 13:39,y,y,y,y,y,y,y,y,y,y,y,y,2023-12-05,2023-12-05,2023-12-12,goeun,2023-11-22,goeun,2025-03-05,0,1460,,,n,2023-11-22,2023-11-23,2023-11-23,2023-11-23,y,y,y,y,0,y,,y,m,y,,y,,2023-12-06,,2023-11-23,,y,n
CNTS_000000000019104,관광지,추자도 숭어체험장,국문,추자도 숭어체험장,,제주특별자치도 제주시 추자면 신양리 874-11,제주특별자치도 제주시 추자면 석두리길 4,33.93998,126.32354,y,5,,5404,,1,1,9,0,0,y,y,y,y,y,2019-07-12 17:03,y,y,y,y,y,y,y,y,y,y,y,y,2019-07-24,2019-07-24,2019-07-24,anonymous,2016-10-19,anonymous,2025-03-05,1,10816,,63001,n,2016-10-19,2016-10-19,2016-10-19,2016-10-19,n,y,y,y,,y,,y,,y,,y,,2019-07-24,,2019-07-24,,y,
CNTS_200000000013601,음식점,제주신화월드 F&B,국문,제주신화월드 F&B,,제주특별자치도 서귀포시 안덕면 서광리 산 24,제주특별자치도 서귀포시 안덕면 신화역사로304번길 38,33.3017501,126.3206458,y,0,,2354,,0,0,3,0,0,y,y,y,y,y,2022-07-07 15:23,y,,,y,m,m,y,,,y,,,2022-07-07,,,iamsunon,2022-07-07,iamsunon,2025-03-03,0,4708,,,n,2022-07-07,2022-07-07,,,y,y,n,n,0,,,m,m,,,,,,,,,n,n
CNTS_200000000013989,테마여행,테마별 제주 맛집을 찾아보자! <반려동물 동반 맛집 편>,국문,테마별 제주 맛집을 찾아보자! <반려동물 동반 맛집 편>,,,,,,y,0,,1358,,0,0,0,0,0,y,y,y,y,y,2022-10-20 16:02,,,,m,m,m,,,,,,,,,,iamsunon,2022-10-20,iamsunon,2025-03-01,0,2716,,,n,2022-10-20,,,,y,n,n,n,0,,,m,m,,,,,,,,,n,n
CNTS_000000000022108,관광지,그랑블루호 선상낚시,국문,그랑블루호 선상낚시,,제주특별자치도 서귀포시 남원읍 위미리 1881-2,제주특별자치도 서귀포시 남원읍 위미중앙로180번길 10,33.274693,126.662605,y,,http://blog.naver.com/bleu1690,2909,,0,0,15,0,0,y,y,n,y,y,2018-06-14 14:55,y,y,y,y,y,y,n,n,n,y,y,y,,,,anonymous,2017-07-10,anonymous,2022-07-06,1,5818,,63611,n,2017-07-10,2017-07-10,2017-07-10,2017-07-10,n,n,n,n,,y,,y,,n,,y,,,,2019-02-25,,n,
CNTS_300000000012762,테마여행,제주마을산책 가을편 <아라동 역사문화탐방로>,국문,제주마을산책 가을편 <아라동 역사문화탐방로>,,,,,,y,1,,3589,,6,1,3,0,0,y,y,y,y,y,2023-09-14 9:35,,,,m,m,m,,,,,,,,,,jto0900045,2023-09-13,jto0900045,2025-03-05,4,7201,,,n,2023-09-13,,,,y,n,n,n,0,,,m,m,,,,,,,,,n,n
CONT_000000000500316,관광지,서건도,국문,서건도,,제주특별자치도 서귀포시 강정동 산 1,제주특별자치도 서귀포시 강정동 산 1,33.23007,126.49852,y,5,,15071,,2,4,26,0,0,y,y,y,y,y,2019-07-12 14:18,y,y,y,y,y,y,y,y,y,y,y,y,2019-07-23,2019-07-23,2019-07-23,anonymous,2016-05-30,anonymous,2025-03-05,10,30168,,,n,2016-05-30,2016-05-30,2016-05-30,2016-05-30,y,y,y,y,9,y,,y,,y,,y,,,,2022-11-28,,y,
CNTS_000000000021532,숙박,구름비낭펜션,국문,구름비낭,,제주특별자치도 제주시 한경면 판포리 2970-3,제주특별자치도 제주시 한경면 판포2길 6-14,33.3634307,126.1976976,y,,,2758,,0,0,3,0,0,y,y,y,y,y,2019-06-21 14:32,y,y,y,m,m,m,y,y,y,y,y,y,,,,anonymous,2016-12-29,anonymous,2025-03-02,1,5516,,63003,n,2016-12-29,2016-12-29,2016-12-29,2016-12-29,n,n,n,n,,,,,,,,,,,,,,,
CNTS_300000000012850,관광지,성읍녹차동굴,국문,성읍녹차동굴,,제주특별자치도 서귀포시 표선면 성읍리 2197,제주특별자치도 서귀포시 표선면 중산간동로 4772,33.3817211,126.7912667,y,5,,1887,,0,2,9,0,2,y,y,y,y,y,2023-11-23 13:38,y,y,y,y,y,y,y,y,y,y,y,y,2023-12-05,2023-12-05,2023-12-12,goeun,2023-11-22,goeun,2025-03-05,0,3784,,,n,2023-11-22,2023-11-28,2023-11-28,2023-11-28,y,y,y,y,0,y,,y,m,y,,y,,2023-12-12,,2023-11-28,,y,n
CNTS_300000000012857,축제/행사,스누피가든 동백축제,국문,스누피가든 동백축제,,제주특별자치도 제주시 구좌읍 송당리 2303-3,제주특별자치도 제주시 구좌읍 금백조로 930,33.4435555,126.7785412,y,0,https://www.instagram.com/snoopygardenkorea,1937,,1,0,5,0,0,y,y,y,y,y,2023-11-23 16:17,,,,m,m,m,,,,,,,,,,rlaalr83,2023-11-23,rlaalr83,2025-03-04,0,3877,,,n,2023-11-23,,,,y,n,n,n,0,,,m,m,,,,,,,,,n,n
CNTS_000000000020054,음식점,월정리갈비밥,국문,월정리갈비밥,,제주특별자치도 제주시 구좌읍 월정리 8-1,제주특별자치도 제주시 구좌읍 월정7길 46,33.554817,126.7969,y,4,http://www.instagram.com/jeju__galbibob,4925,,0,2,27,0,0,y,y,y,y,y,2019-03-19 13:21,y,y,y,y,y,y,y,y,y,y,y,y,2019-03-19,2019-03-19,2019-03-19,anonymous,2016-11-04,anonymous,2025-03-05,4,9860,12962672,63358,n,2016-11-04,2016-11-04,2016-11-04,2016-11-04,y,n,n,n,3,y,,y,,y,,y,,2019-03-19,,2019-02-25,,n,
CNTS_200000000013668,축제/행사,상효원수목원 봉선화축제,국문,상효원수목원 봉선화축제,,제주특별자치도 서귀포시 상효동 산 25,제주특별자치도 서귀포시 산록남로 2847-37,33.3072182,126.5860938,y,0,https://www.instagram.com/jejusanghyowon/,1225,,0,0,1,0,0,y,y,y,y,y,2022-07-22 14:56,,,,m,m,m,,,,,,,,,,iamsunon,2022-07-22,iamsunon,2025-03-02,0,2450,,,n,2022-07-22,,,,y,n,n,n,0,,,m,m,,,,,,,,,n,n
CNTS_300000000012763,테마여행,"제2회 화북, 포구문화제(삭제)",국문,"제2회 화북, 포구문화제(삭제)",,,,,,y,0,,0,,0,0,0,0,0,y,y,n,w,y,,,,,m,m,m,,,,,,,,,,jto0900045,2023-09-14,jto0900045,2023-09-14,0,,,,n,2023-09-14,,,,y,n,n,n,0,,,m,m,,,,,,,,,n,n
CONT_000000000501236,음식점,머루황토불갈비,국문,머루황토불갈비,,제주특별자치도 제주시 오일장중길 41,제주특별자치도 제주시 오일장중길 41,33.49619,126.47261,y,,,713,,0,0,3,0,0,y,y,n,y,y,,y,y,y,y,y,y,n,n,n,y,y,y,,,,anonymous,2016-05-30,anonymous,2022-07-06,0,1426,9405752,,n,2016-05-30,2016-05-30,2016-05-30,2016-05-30,n,n,n,n,,y,,y,,n,,y,,,,2019-02-25,,n,
CNTS_000000000020059,음식점,난드르깡통구이,국문,난드르깡통구이,,제주특별자치도 서귀포시 안덕면 창천리 875-6,제주특별자치도 서귀포시 안덕면 대평감산로 14,33.236134,126.367004,y,4,,4081,,1,2,15,0,0,y,y,y,y,y,2019-10-04 9:46,y,y,y,y,y,y,y,y,y,y,y,y,2019-10-04,2019-10-04,2019-10-04,anonymous,2016-11-04,anonymous,2025-03-05,0,8175,9385590,,n,2016-11-04,2016-11-04,2016-11-04,2016-11-04,y,y,y,y,2,y,,y,,y,,y,,2019-10-04,,2019-10-04,,y,
CNTS_300000000012813,축제/행사,2024 제주시 소상공인 한마음 박람회,국문,2024 제주시 소상공인 한마음 박람회,,제주특별자치도 제주시 오라일동 1151-1,-,33.49728161,126.5136746,y,0,,667,,0,0,0,0,0,y,y,y,y,y,2023-11-06 15:59,,,,m,m,m,,,,,,,,,,rlaalr83,2023-11-06,rlaalr83,2025-03-04,0,1334,,,n,2023-11-06,,,,y,n,n,n,0,,,m,m,,,,,,,,,n,n
CNTS_000000000022197,축제/행사,2024 금능 원담축제,국문,2024 금능 원담축제,,제주특별자치도 제주시 한림읍 금능리 2036-1,제주특별자치도 제주시 한림읍 금능길 119-10,33.3900726,126.2359158,y,4,,16118,,1,4,3,0,4,y,y,y,y,y,2019-07-19 9:59,y,y,y,y,y,y,y,y,y,y,y,y,2019-07-19,2019-07-19,2019-07-19,anonymous,2017-07-25,anonymous,2025-03-05,17,32259,,63010,n,2017-07-25,2017-07-25,2017-07-25,2017-07-25,y,y,y,y,,y,,y,,y,,y,,2019-07-19,,2019-07-19,,y,
CONT_000000000501270,음식점,살랑살랑샤브샤브,국문,살랑살랑샤브샤브,,제주특별자치도 제주시 용담3동 1026-9,제주특별자치도 제주시 서해안로 612,33.488773,126.49531,y,5,,2299,,0,1,7,0,0,y,y,y,y,y,2019-09-10 13:36,y,y,y,y,y,y,y,y,y,y,y,y,2019-09-10,2019-09-10,2019-09-10,anonymous,2016-05-30,anonymous,2025-03-05,0,4603,10298412,63150,n,2016-05-30,2016-05-30,2016-05-30,2016-05-30,y,y,y,y,1,y,,y,,y,,y,,,,2022-12-07,,y,
CNTS_300000000012826,축제/행사,서문반짝마켓,국문,서문반짝마켓,,제주특별자치도 제주시 용담일동 135-52,제주특별자치도 제주시 서문로4길 13-2,33.5113647,126.5179247,y,0,,421,,0,0,0,0,0,y,y,y,y,y,2023-11-14 16:31,,,,m,m,m,,,,,,,,,,rlaalr83,2023-11-14,rlaalr83,2025-03-02,0,842,,,n,2023-11-14,,,,y,n,n,n,0,,,m,m,,,,,,,,,n,n
CNTS_300000000013115,관광지,구두미포구,국문,구두미포구,,제주특별자치도 서귀포시 보목동 1351,-,33.23683616,126.5964687,y,0,,222,,0,0,0,0,0,y,y,y,y,y,2024-07-26 11:27,y,y,y,t,t,t,y,y,y,y,y,y,,,,arahan2,2024-07-25,arahan2,2025-03-05,0,444,,,n,2024-07-25,2024-09-03,2024-09-03,2024-09-03,y,y,y,y,0,y,y,t,t,y,y,y,y,,,2024-09-03,2024-09-03,y,y
CNTS_200000000008496,음식점,미번베트남쌀국수,국문,미번베트남쌀국수,,제주특별자치도 제주시 한림읍 한림리 1587-2,제주특별자치도 제주시 한림읍 한림로5길 23,33.4146732,126.2613821,y,0,,2563,,0,0,4,0,0,y,y,y,y,y,2019-09-10 13:44,y,,,y,m,m,y,,,y,,,2019-09-10,,,haayunn,2019-03-25,haayunn,2025-03-03,0,5126,,,n,2019-03-25,2019-03-28,,,y,y,n,n,0,,,m,m,,,,,,,,,n,n
CNTS_000000000022247,숙박,쇠소깍올레민박,국문,쇠소깍올레민박,,제주특별자치도 서귀포시 하효동 236-2,제주특별자치도 서귀포시 효돈로204번길 23,33.2623726,126.6188522,y,,,1710,,0,0,0,0,0,y,y,y,y,y,2019-11-21 9:25,y,y,y,m,m,m,y,y,y,y,y,y,,,,anonymous,2017-07-28,anonymous,2025-03-05,0,3420,,,n,2017-07-28,2017-07-28,2017-07-28,2017-07-28,y,n,n,n,,,,,,,,,,,,,,,
CONT_000000000501366,음식점,좀녀마을뚝배기,국문,좀녀마을뚝배기,,제주특별자치도 제주시 연동 303-45,제주특별자치도 제주시 은남길 25,33.48737,126.495964,y,,,4714,,0,0,38,0,0,y,y,y,y,y,2019-09-09 15:00,y,y,y,y,y,y,n,n,y,y,y,y,,,2019-09-09,anonymous,2016-05-30,anonymous,2025-03-01,0,9428,,63123,n,2016-05-30,2016-05-30,2016-05-30,2016-05-30,y,n,n,y,,y,,y,,n,,y,,,,2019-02-25,,n,
CNTS_200000000007945,테마여행,제주 한라산의 아름다운 눈꽃 영상 <12월엔 떠나요 ~ 하얀 눈꽃 설렘의 제주로! >,국문,제주 한라산의 아름다운 눈꽃 영상 <12월엔 떠나요 ~ 하얀 눈꽃 설렘의 제주로! >,,,,,,y,5,,10897,,29,749,6,0,68,y,y,y,y,y,2018-11-30 13:55,,,,m,m,m,,,,,,,,,,alexkim,2018-11-30,alexkim,2025-03-05,31,25626,,,n,2018-11-30,,,,y,n,n,n,0,,,,,,,,,,,,,,
CNTS_300000000012841,음식점,행운문,국문,행운문,,제주특별자치도 제주시 애월읍 봉성리 4147-1,제주특별자치도 제주시 애월읍 봉성로2길 34-3,33.364338,126.3552026,y,5,,228,,0,2,4,0,2,y,y,y,y,y,2023-11-23 13:41,y,y,y,y,y,y,y,y,y,y,y,y,2023-12-05,2023-12-12,2023-12-12,goeun,2023-11-22,goeun,2025-03-05,0,466,,,n,2023-11-22,2023-11-28,2023-11-28,2023-11-28,y,y,y,y,0,y,,y,m,y,,y,,2023-12-06,,2023-11-28,,y,n
CONT_000000000500273,관광지,빌레못동굴,국문,빌레못동굴,,제주특별자치도 제주시 애월읍 어음리 1391,제주특별자치도 제주시 애월읍 어음리 1391,33.408165,126.35178,y,5,,20714,,7,4,16,0,0,y,y,y,y,y,2019-07-12 16:51,y,y,y,y,y,y,y,y,y,y,y,y,2019-07-23,2019-07-23,2019-07-23,anonymous,2016-05-30,anonymous,2025-03-05,4,41469,,,n,2016-05-30,2016-05-30,2016-05-30,2016-05-30,y,y,y,n,,y,,y,,y,,y,,2019-07-23,,2019-07-23,,y,
CNTS_300000000012672,음식점,쉐프1192레스토랑,국문,쉐프1192레스토랑,,제주특별자치도 서귀포시 성산읍 온평리 1192-3,제주특별자치도 서귀포시 성산읍 환해장성로 465,33.3985983,126.9051378,y,0,http://www.instagram.com/,223,,0,0,3,0,0,y,y,y,y,y,2023-08-18 15:41,,,,m,m,m,,,,,,,,,,olaolab00,2023-08-18,olaolab00,2025-02-28,0,446,,,n,2023-08-18,,,,y,n,n,n,0,,,m,m,,,,,,,,,n,n
CNTS_200000000008411,테마여행,꽃길 따라 피어나는 제주여행 <제주의 봄은 늘 향기롭다>,국문,꽃길 따라 피어나는 제주여행 <제주의 봄은 늘 향기롭다>,,,,,,y,4,,47295,,6,153,3,0,26,y,y,y,y,y,2019-03-18 10:38,y,y,y,y,y,y,y,y,y,y,y,y,2019-03-26,2019-03-25,2019-03-22,kimhk,2019-03-15,kimhk,2025-03-05,20,95373,,,n,2019-03-15,2019-03-18,2019-03-21,2019-03-21,y,y,y,y,0,y,y,y,m,y,y,y,y,2019-03-25,,2019-03-25,2019-03-21,y,y
CNTS_000000000020013,관광지,대장금촬영지(제주민속촌),국문,대장금촬영지(제주민속촌),,제주특별자치도 서귀포시 표선면 표선리 40-1,제주특별자치도 서귀포시 표선면 민속해안로 631-34,33.322346,126.841484,y,5,,24669,,5,6,105,0,0,y,y,y,y,y,2019-08-22 16:03,y,y,y,y,y,y,y,y,y,y,y,y,2019-07-23,2019-07-23,2019-07-23,anonymous,2016-11-01,anonymous,2025-03-05,4,49383,,63629,n,2016-11-01,2016-11-01,2016-11-01,2016-11-01,y,y,y,y,11,y,,y,,y,,y,,2019-07-23,,2019-07-23,,y,
CNTS_200000000013318,음식점,천보식당,국문,천보식당,,제주특별자치도 서귀포시 서귀동 303-2,제주특별자치도 서귀포시 중앙로89번길 13,33.2521128,126.5591464,y,0,,575,,0,0,1,0,0,y,y,y,y,y,2022-04-28 11:18,,,,m,m,m,,,,,,,,,,iamsunon,2022-04-28,iamsunon,2025-03-04,0,1150,,,n,2022-04-28,,,,y,n,n,n,0,,,m,m,,,,,,,,,n,n
CNTS_200000000013322,음식점,제주돔베막국수,국문,제주돔베막국수,,제주특별자치도 제주시 한경면 고산리 2749-3,제주특별자치도 제주시 한경면 고산로 35,33.3041465,126.1794537,y,0,,1041,,0,0,6,0,0,y,y,y,y,y,2022-04-28 11:41,,,,m,m,m,,,,,,,,,,iamsunon,2022-04-28,iamsunon,2025-03-01,2,2082,,,n,2022-04-28,,,,y,n,n,n,0,,,m,m,,,,,,,,,n,n
CNTS_300000000012673,음식점,카페오늘의바다,국문,카페오늘의바다,,제주특별자치도 서귀포시 법환동 131,제주특별자치도 서귀포시 이어도로 990,33.2416566,126.5184877,y,0,http://www.instagram.com/oneul_e_vada,252,,0,0,0,0,0,y,y,y,y,y,2023-08-18 15:42,,,,m,m,m,,,,,,,,,,olaolab00,2023-08-18,olaolab00,2025-02-26,0,504,,,n,2023-08-18,,,,y,n,n,n,0,,,m,m,,,,,,,,,n,n
CNTS_300000000012675,음식점,제주스럽닭서귀포올레점,국문,제주스럽닭서귀포올레점,,제주특별자치도 서귀포시 서귀동 587-17,제주특별자치도 서귀포시 태평로 396,33.24425,126.5626707,y,0,http://www.instagram.com/jejusluv.dak_sg,179,,0,0,1,0,0,y,y,y,y,y,2023-08-18 15:45,,,,m,m,m,,,,,,,,,,olaolab00,2023-08-18,olaolab00,2025-03-03,0,358,,,n,2023-08-18,,,,y,n,n,n,0,,,m,m,,,,,,,,,n,n
CNTS_300000000012676,음식점,제주에인감귤밭,국문,제주에인감귤밭,,제주특별자치도 서귀포시 호근동 693,제주특별자치도 서귀포시 호근서호로 20-14,33.2566081,126.5394101,y,5,http://www.instagram.com/jejue_in_farm,888,,1,1,6,0,1,y,y,y,y,y,2023-08-18 15:46,y,y,y,y,y,y,y,y,y,y,y,y,2023-12-11,2023-12-12,2023-12-12,olaolab00,2023-08-18,olaolab00,2025-03-05,0,1784,,,n,2023-08-18,2023-11-28,2023-11-28,2023-11-28,y,y,y,y,0,y,,y,m,y,,y,,2023-12-06,,2023-11-28,,y,n
CNTS_300000000012731,관광지,유캔들잇스튜디오,국문,유캔들잇스튜디오,,제주특별자치도 제주시 이도이동 396-7,제주특별자치도 제주시 정든로 5,33.498108,126.5401507,y,0,http://www.instagram.com/u_candle.it,257,,0,0,0,0,0,y,y,y,y,y,2023-08-29 16:32,,,,m,m,m,,,,,,,,,,olaolab00,2023-08-22,olaolab00,2025-03-05,0,514,,,n,2023-08-22,,,,y,n,n,n,0,,,m,m,,,,,,,,,n,n
CONT_000000000500382,관광지,송죽사터,국문,송죽사터,,제주특별자치도 서귀포시 대정읍 안성리,제주특별자치도 서귀포시 대정읍 안성리,33.250626,126.27805,y,,,3279,,0,0,1,0,0,y,y,y,y,y,2019-07-12 17:39,y,y,y,y,y,y,y,y,y,y,y,y,2019-07-24,2019-07-24,2019-07-24,anonymous,2016-05-30,anonymous,2025-03-04,0,6558,,,n,2016-05-30,2016-05-30,2016-05-30,2016-05-30,n,y,y,y,,y,,y,,y,,y,,,,2022-11-28,,y,
CONT_000000000500109,관광지,논짓물,국문,논짓물,,제주특별자치도 서귀포시 하예동 570,제주특별자치도 서귀포시 예래해안로 253,33.2367992,126.3886721,y,5,,31926,,5,11,92,0,0,y,y,y,y,y,2019-07-15 11:37,y,y,y,y,y,y,y,y,y,y,y,y,2019-07-23,2019-07-23,2019-07-23,anonymous,2016-05-30,anonymous,2025-03-05,35,63922,,,n,2016-05-30,2016-05-30,2016-05-30,2016-05-30,y,y,y,y,13,y,,y,,y,,y,,,,2022-11-24,,y,
CNTS_300000000012736,테마여행,지구별 MBTI 여행자 <N 직관형의 아주 사적인 제주 여행!>,국문,지구별 MBTI 여행자 <N 직관형의 아주 사적인 제주 여행!>,,,,,,y,0,,1323,,1,0,1,0,0,y,y,y,y,y,2023-08-28 11:13,,,,m,m,m,,,,,,,,,,changwon1031,2023-08-24,changwon1031,2025-03-05,0,2649,,,n,2023-08-24,,,,y,n,n,n,0,,,m,m,,,,,,,,,n,n
CNTS_300000000012745,관광지,한라동물종합병원,국문,한라동물종합병원,,제주특별자치도 제주시 일도이동 321-10,제주특별자치도 제주시 고마로 37,33.5108854,126.5390598,y,0,,526,,0,0,0,0,0,y,y,y,y,y,2023-09-05 11:34,,,,m,m,m,,,,,,,,,,olaolab00,2023-08-29,olaolab00,2025-03-04,0,1052,,,n,2023-08-29,,,,y,n,n,n,0,,,m,m,,,,,,,,,n,n
CNTS_300000000013107,축제/행사,성산 조개 바당 측제,국문,성산 조개 바당 측제,,성산읍 고성리 263번지,,,,y,0,https://www.facebook.com/seongsan.jeju/,616,,0,0,0,0,0,y,y,y,y,y,2024-07-24 14:19,,,,m,m,m,,,,,,,,,,arahan2,2024-07-24,arahan2,2025-03-04,0,1232,,,n,2024-07-24,,,,y,n,n,n,0,,,m,m,,,,,,,,,n,n
CNTS_300000000013108,음식점,상명식당,국문,상명식당,,제주특별자치도 제주시 한림읍 상명리 1015-1,제주특별자치도 제주시 한림읍 상한로 4,33.3580734,126.2742981,y,0,,250,,0,0,0,0,0,y,y,y,y,y,2024-07-24 14:19,y,y,y,y,y,y,y,y,y,y,y,y,2024-09-05,2024-09-05,2024-09-05,arahan,2024-07-24,arahan,2025-03-05,0,500,,,n,2024-07-24,2024-09-05,2024-09-05,2024-09-05,y,y,y,y,0,y,y,y,y,y,y,y,y,2024-09-05,2024-09-05,2024-09-05,2024-09-05,y,y
CNTS_000000000018397,음식점,숨비나리카페,국문,숨비나리카페,,제주특별자치도 서귀포시 안덕면 상창리 2090-1,제주특별자치도 서귀포시 안덕면 중산간서로1615번길 8,33.282284,126.348366,y,4,,3171,,0,3,13,0,0,y,y,y,y,y,2018-12-11 14:31,y,y,y,y,m,m,y,y,y,y,y,y,2019-02-07,,,anonymous,2016-10-07,anonymous,2025-03-05,0,6357,12631415,63526,n,2016-10-07,2019-02-07,2016-10-07,2016-10-07,n,n,n,n,7,,,,,,,,,,,,,,
CNTS_200000000013328,음식점,엄블랑디,국문,엄블랑디,,제주특별자치도 서귀포시 서귀동 330-25,제주특별자치도 서귀포시 일주동로 8713,33.2523783,126.5576332,y,0,,131,,0,0,1,0,0,y,y,y,y,y,2022-04-28 13:17,,,,m,m,m,,,,,,,,,,iamsunon,2022-04-28,iamsunon,2025-03-01,0,262,,,n,2022-04-28,,,,y,n,n,n,0,,,m,m,,,,,,,,,n,n
CNTS_200000000013349,축제/행사,제주 문화유산 체험프로그램,국문,제주 문화유산 체험프로그램,,제주특별자치도 제주시 한경면 고산리 3650-1,제주특별자치도 제주시 한경면 노을해안로 1100,33.30418,126.166345,y,0,,3925,,0,0,0,0,0,y,y,y,y,y,2022-05-03 16:55,,,,m,m,m,,,,,,,,,,iamsunon,2022-05-03,iamsunon,2025-03-03,2,7850,,,n,2022-05-03,,,,y,n,n,n,0,,,m,m,,,,,,,,,n,n
CNTS_000000000018269,숙박,갯바위펜션,국문,갯바위펜션,,제주특별자치도 서귀포시 하예동 1747,제주특별자치도 서귀포시 하예하동로 37,33.2335467,126.3727955,y,,,1671,,0,0,0,0,0,y,y,y,y,y,2019-12-03 16:23,y,y,y,m,m,m,y,y,y,y,y,y,,,,anonymous,2016-10-05,anonymous,2025-03-04,0,3342,,,n,2016-10-05,2016-10-05,2016-10-05,2016-10-05,y,n,n,n,,,,,,,,,,,,,,,
CNTS_300000000012760,테마여행,꼬마 삼춘의 그린 트래블<가치島르라>,국문,꼬마 삼춘의 그린 트래블<가치島르라>,,,,,,y,5,,848,,13,28,1,0,3,y,y,y,y,y,2023-09-13 9:00,,,,m,m,m,,,,,,,,,,jto0900045,2023-09-12,jto0900045,2025-03-05,7,1875,,,n,2023-09-12,,,,y,n,n,n,0,,,m,m,,,,,,,,,n,n
CNTS_000000000021271,음식점,제주오성,국문,제주오성,,제주특별자치도 서귀포시 색달동 2507-1,제주특별자치도 서귀포시 중문관광로 27,33.2556752,126.4146427,y,4,https://www.instagram.com/jeju.ohsung/,5859,,0,2,28,0,1,y,y,y,y,y,2019-10-14 16:20,y,y,y,m,m,m,y,y,y,y,y,y,,,,anonymous,2016-12-23,anonymous,2025-03-05,2,11728,,63534,n,2016-12-23,2016-12-23,2016-12-23,2016-12-23,y,n,n,n,,,,,,,,,,,,,,,
CNTS_000000000019652,관광지,김만덕객주,국문,김만덕객주,,제주특별자치도 제주시 건입동 984-41,제주특별자치도 제주시 임항로 68,33.5164883,126.5322757,y,5,,16861,,6,3,91,0,2,y,y,y,y,y,2019-07-12 16:55,y,y,y,y,y,y,y,y,y,y,y,y,2019-07-22,2019-07-22,2019-07-22,anonymous,2016-10-26,anonymous,2025-03-05,2,33755,,,n,2016-10-26,2016-10-26,2016-10-26,2016-10-26,y,y,y,y,,y,,y,,y,,y,,2019-07-22,,2019-07-22,,y,
CNTS_200000000013392,테마여행,꼭 경험해야 할 제주명품 - 제주의 7대 체험거리,국문,꼭 경험해야 할 제주명품 - 제주의 7대 체험거리,,,,,,y,0,,7496,,0,0,1,0,0,y,y,y,y,y,2022-05-12 9:24,,,,m,m,m,,,,,,,,,,iamsunon,2022-05-12,iamsunon,2025-03-02,1,14992,,,n,2022-05-12,,,,y,n,n,n,0,,,m,m,,,,,,,,,n,n
CNTS_200000000013393,테마여행,꼭 경험해야 할 제주명품 - 제주의 7대 비경,국문,꼭 경험해야 할 제주명품 - 제주의 7대 비경,,,,,,y,0,,9902,,0,0,0,0,0,y,y,y,y,y,2022-05-12 9:55,y,y,y,y,y,y,y,y,y,y,y,y,2022-10-19,2022-10-25,2022-11-07,iamsunon,2022-05-12,iamsunon,2025-03-04,5,19804,,,n,2022-05-12,2022-10-19,2022-10-18,2022-11-07,y,y,y,y,0,y,,t,m,y,,y,,,,2022-10-18,,y,n
CNTS_000000000022654,음식점,카페 아트진,국문,카페 아트진,,서귀포시 예래로 454,서귀포시 하예동 1830-7 1층,33.24512,126.38528,y,5,,684,,3,5,3,0,0,y,y,n,m,y,,y,y,y,m,m,m,y,y,y,y,y,y,,,,anonymous,2017-10-17,anonymous,2025-03-05,0,1377,,,n,2017-10-17,2017-10-17,2017-10-17,2017-10-17,n,n,n,n,,,,,,,,,,,,,,,
CNTS_200000000012138,관광지,서영아리오름 / 용와이오름,국문,서영아리오름 / 용와이오름,,,,,,y,0,,2328,,0,0,4,0,0,y,y,n,y,y,2021-10-20 10:17,,,,m,m,m,,,,,,,,,,damoang,2021-10-19,damoang,2024-11-25,1,4656,,,n,2021-10-19,,,,y,n,n,n,0,,,m,m,,,,,,,,,n,n
CNTS_000000000021464,음식점,모퉁이스낵,국문,모퉁이스낵,,제주특별자치도 서귀포시 성산읍 성산리 136-7,제주특별자치도 서귀포시 성산읍 일출로 270-2,33.461685,126.93423,y,,,1357,,0,0,2,0,0,y,y,n,y,y,2019-09-23 9:39,y,y,y,m,m,m,y,y,y,y,y,y,,,,anonymous,2016-12-27,anonymous,2023-01-13,0,2714,9419191,63643,n,2016-12-27,2016-12-27,2016-12-27,2016-12-27,y,n,n,n,,,,,,,,,,,,,,,
CNTS_000000000021690,테마여행,겨울 한라산과의 밀당 <어리목 코스 눈꽃 트래킹>,국문,겨울 한라산과의 밀당 <어리목 코스 눈꽃 트래킹>,,,,0,0,y,5,,29964,,6,2,1,0,0,y,y,y,y,y,,y,y,y,y,m,m,y,y,y,y,y,y,,,,anonymous,2017-01-17,anonymous,2025-03-05,0,59956,,,n,2017-01-17,2017-01-17,2017-01-17,2017-01-17,n,n,n,n,,,y,,y,,y,,y,,,,2022-03-10,,n
CNTS_200000000012139,관광지,월라봉 진지동굴 (안덕면),국문,월라봉 진지동굴 (안덕면),,,,,,y,0,,2799,,0,0,12,0,0,y,y,y,y,y,2021-10-20 10:17,,,,m,m,m,,,,,,,,,,damoang,2021-10-19,damoang,2025-03-04,0,5598,,,n,2021-10-19,,,,y,n,n,n,0,,,m,m,,,,,,,,,n,n
CONT_000000000501437,음식점,황금어장,국문,황금어장,,제주특별자치도 서귀포시 서귀동 275-12,제주특별자치도 서귀포시 중앙로48번길 14,33.2490795,126.5631739,y,,blog.naver.com/cloe028,3094,,0,0,1,0,0,y,y,y,y,y,2019-10-17 10:55,y,y,y,y,y,y,y,n,y,y,y,y,2019-10-17,2019-10-17,2019-10-17,anonymous,2016-05-30,anonymous,2025-03-05,0,6188,9015145,63591,n,2016-05-30,2016-05-30,2016-05-30,2016-05-30,y,y,y,y,,y,,y,,n,,y,,,,2022-04-15,,y,
CNTS_200000000011479,테마여행,[서귀포 건축문화기행] 8코스. 풍광이 된 제주 말의 놀이터,국문,[서귀포 건축문화기행] 8코스. 풍광이 된 제주 말의 놀이터,,,,,,y,0,,1285,,0,0,0,0,0,y,y,y,y,y,2021-05-25 0:00,y,,,y,m,m,y,,,y,,,2021-12-25,,,iamsunon,2021-05-04,iamsunon,2025-03-04,0,2570,,,n,2021-05-04,2021-12-13,,,y,y,n,n,0,,,m,m,,,,,,,,,n,n
CNTS_000000000020262,음식점,바다동굴,국문,바다동굴,,제주특별자치도 제주시 한림읍 월령리 317,제주특별자치도 제주시 한림읍 월령3길 36,33.37875,126.216835,y,4,,3038,,1,2,19,0,0,y,y,n,m,y,,y,y,y,m,m,m,n,n,n,y,y,y,,,,anonymous,2016-11-16,anonymous,2025-03-05,2,6079,9261853,63010,n,2016-11-16,2016-11-16,2016-11-16,2016-11-16,n,n,n,n,6,y,,m,,n,,y,,,,2019-02-25,,n,
CONT_000000000501428,음식점,현기네식당,국문,현기네식당,,제주특별자치도 제주시 봉개동 1829-9,제주특별자치도 제주시 번영로 487,33.4910157,126.5942761,y,,,1800,,1,0,1,0,0,y,y,y,y,y,2019-09-23 13:43,y,y,y,y,y,y,y,n,n,y,y,y,2019-09-23,,,anonymous,2016-05-30,anonymous,2025-03-01,0,3603,8964738,,n,2016-05-30,2016-05-30,2016-05-30,2016-05-30,y,y,n,n,,y,,y,,n,,y,,,,2019-02-25,,n,
CONT_000000000500952,숙박,슬리퍼게스트하우스,국문,슬리퍼게스트하우스,,제주도 서귀포시 서귀동 276-14,제주도 서귀포시 중앙로48번길 17-1,33.249393,126.56361,y,,blog.naver.com/sleepers14,765,,0,0,2,0,0,y,y,n,y,y,,y,y,y,y,y,y,n,n,n,y,y,y,,,,anonymous,2016-05-30,anonymous,2022-02-14,0,1530,3595075,,n,2016-05-30,2016-05-30,2016-05-30,2016-05-30,n,n,n,n,,y,,y,,n,,y,,,,2019-02-25,,n,
CONT_000000000500266,관광지,붉은오름 자연휴양림,국문,붉은오름 자연휴양림,,제주특별자치도 서귀포시 표선면 가시리 산 158,제주특별자치도 서귀포시 표선면 남조로 1487-73,33.395905,126.669785,y,5,,53555,,13,18,140,0,1,y,y,y,y,y,2019-09-02 12:57,y,y,y,y,y,y,y,y,y,y,y,y,2019-08-29,2019-08-29,2019-08-29,anonymous,2016-05-30,anonymous,2025-03-05,53,107239,,63622,n,2016-05-30,2016-05-30,2016-05-30,2016-05-30,y,y,y,y,33,y,,y,,y,,y,,,,2022-11-25,,y,
CONT_000000000500238,관광지,법정악(법정이),국문,법정악(법정이),,제주특별자치도 서귀포시 영실로 246 영실매표소,제주특별자치도 서귀포시 영실로 246 영실매표소,33.31383,126.46973,y,5,,1546,,0,1,3,0,0,y,y,n,y,y,2019-07-15 10:45,y,y,y,y,y,y,n,n,n,y,y,y,2019-07-23,2019-07-23,2019-07-23,anonymous,2016-05-30,anonymous,2025-03-05,0,3097,,,n,2016-05-30,2016-05-30,2016-05-30,2016-05-30,y,y,y,y,5,y,,y,,n,,y,,2019-07-23,,2019-07-23,,y,
CNTS_000000000020964,관광지,고내리포구,국문,고내리포구,,제주특별자치도 제주시 애월읍 고내리,제주특별자치도 제주시 애월읍 고내리,33.46709,126.33758,y,5,,4987,,0,8,15,0,1,y,y,y,y,y,2019-07-12 16:30,y,y,y,m,m,m,y,y,y,y,y,y,,,,anonymous,2016-12-14,anonymous,2025-03-05,0,10014,,,n,2016-12-14,2016-12-14,2016-12-14,2016-12-14,y,n,n,n,13,,,,,,,,,,,,,,
CNTS_000000000021896,테마여행,5월에 놓치지 말아야 할 <오감으로 느끼는 제주의 10가지 컬러>,국문,5월에 놓치지 말아야 할 <오감으로 느끼는 제주의 10가지 컬러>,,,,0,0,y,,,45062,,7,0,9,0,0,y,y,y,y,y,,y,y,y,y,y,m,y,y,y,y,y,y,,,,anonymous,2017-04-18,anonymous,2025-03-05,4,90145,,,n,2017-04-18,2017-04-18,2017-04-18,2017-04-18,n,n,n,n,,y,y,y,y,y,y,y,y,,,2022-08-17,2022-08-17,n,n
CNTS_200000000011933,테마여행,All About Grand Hyatt Jeju: Luxury Hotel in Downtown Jeju,영문,All About Grand Hyatt Jeju: Luxury Hotel in Downtown Jeju,,,,,,y,0,,2327,,1,0,1,0,0,,,,m,y,,y,,,y,m,m,y,,,y,,,2021-09-07,,,round7710,2021-09-03,round7710,2025-03-05,0,4657,,,n,,2021-09-03,,,n,y,n,n,0,,,m,m,,,,,,,,,n,n
CNTS_000000000020974,음식점,은희네해장국 본점,국문,은희네해장국 본점,,제주특별자치도 제주시 일도2동 357-4,제주특별자치도 제주시 고마로13길 8,33.508522,126.5408,y,5,,13966,,8,4,72,0,0,y,y,y,y,y,2019-09-11 16:17,y,y,y,y,y,y,y,y,y,y,y,y,2023-12-12,2023-12-12,2023-12-12,anonymous,2016-12-14,anonymous,2025-03-05,13,27976,9088834,63253,n,2016-12-14,2023-11-28,2023-11-28,2023-11-28,y,y,y,y,3,y,,y,,y,,y,,2023-12-06,,2023-11-28,,y,
CNTS_200000000012177,쇼핑,화북종합시장,국문,화북종합시장,,제주특별자치도 제주시 화북일동 1947-24,제주특별자치도 제주시 진동로5길 31,33.5218084,126.5664464,y,0,,1579,,0,0,0,0,0,y,y,y,y,y,2021-10-27 17:27,,,,m,m,m,,,,,,,,,,seunghee8696,2021-10-27,seunghee8696,2025-03-03,1,3158,,,n,2021-10-27,,,,y,n,n,n,0,,,m,m,,,,,,,,,n,n
CNTS_000000000021914,음식점,제주 어가,국문,제주 어가,,제주특별자치도 제주시 노형동 699-5,제주특별자치도 제주시 1100로 3213-8,33.47434,126.48357,y,5,,7224,,3,1,39,0,0,y,y,y,y,y,2019-09-23 9:49,y,y,y,m,m,m,y,y,y,y,y,y,,,,anonymous,2017-04-28,anonymous,2025-03-05,6,14462,,63092,n,2017-04-28,2017-04-28,2017-04-28,2017-04-28,y,n,n,n,1,,,,,,,,,,,,,,
CNTS_300000000012666,축제/행사,2023 해질녘 여름 버스킹,국문,2023 해질녘 여름 버스킹,,제주특별자치도 제주시 조천읍 교래리 산 98,제주특별자치도 제주시 조천읍 남조로 2023,33.4180631,126.6534847,y,0,https://www.instagram.com/jejustonepark/,341,,0,0,0,0,0,y,y,y,y,y,2023-08-17 13:02,,,,m,m,m,,,,,,,,,,9900022,2023-08-17,9900022,2025-03-02,0,682,,,n,2023-08-17,,,,y,n,n,n,0,,,m,m,,,,,,,,,n,n
CONT_000000000500376,관광지,송당본향당,국문,송당본향당,,제주특별자치도 제주시 구좌읍 송당리,제주특별자치도 제주시 구좌읍 송당리,33.45618,126.76734,y,5,,11630,,2,4,14,0,0,y,y,y,y,y,2019-07-15 10:11,y,y,y,y,y,y,y,y,y,y,y,y,2019-07-23,2019-07-23,2019-07-23,anonymous,2016-05-30,anonymous,2025-03-05,3,23286,,,n,2016-05-30,2016-05-30,2016-05-30,2016-05-30,y,y,y,y,13,y,,y,,y,,y,,,,2022-11-28,,y,
CNTS_000000000020297,음식점,치치퐁,국문,치치퐁,,제주특별자치도 서귀포시 안덕면 사계리 171-4,제주특별자치도 서귀포시 안덕면 사계남로216번길 24-62,33.235268,126.313446,y,4,https://www.instagram.com/ch1chipong/,11003,,6,15,100,0,0,y,y,y,y,y,2019-10-04 17:33,y,y,y,y,y,y,y,y,y,y,y,y,2019-10-04,2019-10-04,2019-10-04,anonymous,2016-11-17,anonymous,2025-03-05,3,22099,,63528,n,2016-11-17,2016-11-17,2016-11-17,2016-11-17,y,y,y,y,21,y,,y,,y,,y,,2019-10-04,,2019-10-04,,y,
CONT_000000000500655,관광지,통오름,국문,통오름,,제주특별자치도 서귀포시 성산읍 신산리 1754-1,제주특별자치도 서귀포시 성산읍 신산리 1754-1,33.395042,126.85444,y,5,,4834,,2,1,6,0,0,y,y,y,y,y,2019-07-12 17:14,y,y,y,y,y,y,y,y,y,y,y,y,2019-07-23,2019-07-23,2019-07-23,anonymous,2016-05-30,anonymous,2025-03-05,0,9679,,,n,2016-05-30,2016-05-30,2016-05-30,2016-05-30,y,y,y,y,2,y,,y,,y,,y,,,,2022-12-01,,y,
CONT_000000000501238,음식점,명품진전복해물탕,국문,명품진전복해물탕,,제주특별자치도 제주시 이도이동 1970-2,제주특별자치도 제주시 신설로 6,33.4939158,126.5415943,y,5,map.naver.com/local/siteview.nhn?code=33040253,8530,,7,3,32,0,0,y,y,n,y,y,2019-03-21 15:28,y,y,y,y,y,y,y,y,y,y,y,y,2019-03-21,2019-03-21,2019-03-21,anonymous,2016-05-30,anonymous,2025-03-05,8,17096,9445496,,n,2016-05-30,2016-05-30,2016-05-30,2016-05-30,y,y,y,y,,y,,y,,y,,y,,2019-03-21,,2019-02-25,,y,
CONT_000000000500364,관광지,소남머리,국문,소남머리,,제주특별자치도 서귀포시 서귀동 70,제주특별자치도 서귀포시 칠십리로 145,33.2442936,126.5691064,y,,,6124,,0,0,6,0,0,y,y,y,y,y,2019-07-15 13:55,y,y,y,y,y,y,y,y,y,y,y,y,2019-07-17,2019-07-17,2019-07-17,anonymous,2016-05-30,anonymous,2025-03-03,3,12248,,,n,2016-05-30,2016-05-30,2016-05-30,2016-05-30,y,y,y,y,,y,,y,,y,,y,,,,2022-11-28,,y,
CONT_000000000500439,관광지,에코승마아카데미(구.제주승마장),국문,에코승마아카데미(구.제주승마장),,제주특별자치도 제주시 조천읍 교래리 39-3,제주특별자치도 제주시 조천읍 교래리 39-3번지 (비자림로 1065),33.4276176,126.6665803,y,,,12606,,3,0,33,0,0,y,y,n,y,y,2019-07-17 17:42,y,y,y,y,y,y,y,y,y,y,y,y,2019-07-17,2019-07-23,2019-07-23,anonymous,2016-05-30,anonymous,2025-03-04,9,25221,,,n,2016-05-30,2016-05-30,2016-05-30,2016-05-30,y,y,y,y,,y,,y,,y,,y,,2019-07-23,,2019-07-17,,y,
CONT_000000000501347,음식점,정순화손두부,국문,정순화손두부,,제주특별자치도 제주시 조천읍 북촌리 1586-1,제주특별자치도 제주시 조천읍 일주동로 1415,33.54495,126.68638,y,,,3350,,0,0,7,0,0,y,y,y,y,y,2019-10-16 18:00,y,y,y,y,y,y,y,y,y,y,y,y,2019-10-16,2019-10-16,2019-10-16,anonymous,2016-05-30,anonymous,2025-03-04,0,6700,,63339,n,2016-05-30,2016-05-30,2016-05-30,2016-05-30,y,y,y,y,,y,,y,,y,,y,,,,2022-12-07,,y,
CNTS_200000000011157,테마여행,"같이가치 떠나는 여행, 기억하고 싶은 제주 원도심의 삶과 자연",국문,"같이가치 떠나는 여행, 기억하고 싶은 제주 원도심의 삶과 자연",,,,,,y,0,,6,,0,0,0,0,0,y,y,n,y,y,2021-03-05 15:37,,,,m,m,m,,,,,,,,,,goeuncnd,2021-03-02,goeuncnd,2022-02-14,0,12,,,n,2021-03-02,,,,y,n,n,n,0,,,m,m,,,,,,,,,n,n
CNTS_000000000022301,음식점,달에,국문,달에,,제주특별자치도 제주시 애월읍 고내리 1124,제주특별자치도 제주시 애월읍 고내로9길 44-2,33.466644,126.3384,y,,,1781,,0,0,2,0,0,y,y,n,y,y,2019-10-04 9:54,y,y,y,y,y,y,n,n,n,y,y,y,2019-10-04,2019-10-04,2019-10-04,anonymous,2017-08-02,anonymous,2023-07-14,0,3562,,63045,n,2017-08-02,2017-08-02,2017-08-02,2017-08-02,y,y,y,y,,y,,y,,n,,y,,,,2023-01-06,,y,
CNTS_000000000020615,숙박,브릭216,국문,브릭216,,제주특별자치도 서귀포시 대포동 2229-1,제주특별자치도 서귀포시 이어도로 216,33.240837,126.44346,y,3,,2665,,0,1,1,0,0,y,y,y,y,y,2019-12-03 11:05,y,y,y,m,m,m,y,y,y,y,y,y,,,,anonymous,2016-11-24,anonymous,2025-03-05,2,5335,10035179,63543,n,2016-11-24,2016-11-24,2016-11-24,2016-11-24,y,n,n,n,1,,,,,,,,,,,,,,
CONT_000000000501325,음식점,오르막가든,국문,오르막가든,,제주특별자치도 서귀포시 대포중앙로 12,제주특별자치도 서귀포시 대포중앙로 12,33.250298,126.43307,y,,,2749,,0,0,20,0,0,y,y,y,y,y,2019-10-04 17:38,y,y,y,y,y,y,y,y,y,y,y,y,2019-10-04,2019-10-04,2019-10-04,anonymous,2016-05-30,anonymous,2025-03-04,1,5498,9357943,,n,2016-05-30,2016-05-30,2016-05-30,2016-05-30,y,y,y,y,,y,,y,,y,,y,,,,2022-12-07,,y,
CONT_000000000500945,숙박,쉼표있는뜨락,국문,쉼표있는뜨락,,제주특별자치도 제주시 구좌읍 일주동로 3429,제주특별자치도 제주시 구좌읍 일주동로 3429,33.517315,126.8838,y,,,659,,0,0,0,0,0,y,y,y,m,y,,y,y,y,m,m,m,y,y,y,y,y,y,,,,anonymous,2016-05-30,anonymous,2022-02-14,0,1318,,,n,2016-05-30,2016-05-30,2016-05-30,2016-05-30,n,n,n,n,,y,,m,,y,,y,,,,2019-02-25,,n,
CNTS_200000000014079,숙박,곁겹,국문,곁겹,,제주특별자치도 제주시 한림읍 금능리 2088-29,제주특별자치도 제주시 한림읍 한림로 224-6,33.3860279,126.2319063,y,0,https://www.instagram.com/gyeotgyeop/,788,,0,0,0,0,0,y,y,y,y,y,2022-11-14 15:40,y,,,y,m,m,y,,,y,,,2022-12-14,,,iamsunon,2022-11-14,iamsunon,2025-02-26,1,1576,,,n,2022-11-14,2022-12-14,,,y,y,n,n,0,,,m,m,,,,,,,,,n,n
CNTS_200000000013423,음식점,두리호집,국문,두리호집,,제주특별자치도 제주시 한림읍 한림리 1328-53,제주특별자치도 제주시 한림읍 한림해안로 127,33.4153664,126.2616327,y,0,,1121,,0,0,0,0,0,y,y,y,y,y,2022-05-17 17:33,y,,,y,m,m,y,,,y,,,2022-07-07,,,iamsunon,2022-05-17,iamsunon,2025-03-04,1,2242,,,n,2022-05-17,2022-07-07,,,y,y,n,n,0,,,m,m,,,,,,,,,n,n
CNTS_000000000022117,숙박,푸르미르 펜션,국문,푸르미르 펜션,,제주특별자치도 서귀포시 성산읍 성산리 368,제주특별자치도 서귀포시 성산읍 한도로 207,33.46819,126.93005,y,,,2706,,0,0,1,0,0,y,y,y,y,y,2019-12-03 16:02,y,y,y,y,y,y,y,y,y,y,y,y,2019-12-03,2019-12-03,2019-12-03,anonymous,2017-07-10,anonymous,2025-02-27,1,5412,,63643,n,2017-07-10,2017-07-10,2017-07-10,2017-07-10,y,y,y,y,,y,,y,,y,,y,,2019-12-03,,2019-12-03,,y,
CNTS_000000000022122,음식점,카페 웰컴,국문,카페 웰컴,,"제주특별자치도 제주시 연동 313-105 , 1층",제주특별자치도 제주시 선덕로 23,33.486317,126.4991,y,,,151,,0,0,0,0,0,y,y,n,y,y,,y,y,y,y,y,y,n,n,n,y,y,y,,,,anonymous,2017-07-10,anonymous,2022-02-14,0,302,,63122,n,2017-07-10,2017-07-10,2017-07-10,2017-07-10,n,n,n,n,,y,,y,,n,,y,,,,2019-02-25,,n,
CONT_000000000500566,관광지,제주월드컵경기장,국문,제주월드컵경기장,,제주특별자치도 서귀포시 법환동 914,제주특별자치도 서귀포시 월드컵로 33,33.2472388,126.5092079,y,4,,48801,,0,15,14,0,2,y,y,n,y,y,2019-07-12 10:56,y,y,y,y,y,y,n,n,n,y,y,y,2019-07-22,2019-07-22,2019-07-22,anonymous,2016-05-30,anonymous,2025-03-05,69,97672,,63572,n,2016-05-30,2016-05-30,2016-05-30,2016-05-30,y,y,y,y,12,y,,y,,n,,y,,2019-07-22,,2019-07-22,,y,
CNTS_200000000014013,테마여행,"제주 해안로드트립, 제주에서 만나는 <남방큰돌고래>",국문,"제주 해안로드트립, 제주에서 만나는 <남방큰돌고래>",,,,,,y,0,,12988,,1,0,1,0,0,y,y,y,y,y,2022-10-27 11:45,y,y,y,y,y,y,y,y,y,y,y,y,2022-12-27,2023-01-05,2022-12-27,jto0900045,2022-10-27,jto0900045,2025-03-05,3,25979,,,n,2022-10-27,2022-12-27,2023-01-05,2022-12-27,y,y,y,y,0,y,,t,m,y,,y,,,,2023-01-05,,y,n
CNTS_200000000013424,축제/행사,2022 서귀포 봄맞이 축제,국문,2022 서귀포 봄맞이 축제,,제주특별자치도 서귀포시 서귀동 512-1,제주특별자치도 서귀포시 이중섭로 29,33.2455319,126.564526,y,0,,492,,0,0,0,0,0,y,y,y,y,y,2022-05-18 10:38,,,,m,m,m,,,,,,,,,,iamsunon,2022-05-18,iamsunon,2025-02-27,1,984,,,n,2022-05-18,,,,y,n,n,n,0,,,m,m,,,,,,,,,n,n
CNTS_000000000020513,숙박,중문스테이,국문,중문스테이,,제주특별자치도 서귀포시 대포동 1695,제주툭별자치도 서귀포시 중문관광로 288,33.24583,126.429504,y,3,,3835,,0,1,2,0,0,y,y,y,y,y,2019-12-03 11:17,y,y,y,y,y,y,y,y,y,y,y,y,2019-12-03,2019-12-03,2019-12-03,anonymous,2016-11-22,anonymous,2025-03-05,0,7675,11824112,63546,n,2016-11-22,2016-11-22,2016-11-22,2016-11-22,y,y,y,y,3,y,,y,,y,,y,,2019-12-03,,2019-12-03,,y,
CNTS_000000000021409,관광지,별도포구,국문,별도포구,,제주특별자치도 제주시 화북1동 4269-12,제주특별자치도 제주시 화북1동 4269-12,33.52501,126.564995,y,,,2693,,1,0,1,0,0,y,y,y,y,y,2019-07-12 15:40,y,y,y,m,m,m,y,y,y,y,y,y,,,,anonymous,2016-12-26,anonymous,2025-03-01,2,5389,,690061,n,2016-12-26,2016-12-26,2016-12-26,2016-12-26,y,n,n,n,,,,,,,,,,,,,,,
CNTS_200000000009201,테마여행,‘달리면’ 제주가 달라 보인다 <제주 해안도로 Best of Best 5>,국문,‘달리면’ 제주가 달라 보인다 <제주 해안도로 Best of Best 5>,,,,,,y,5,,86120,,0,2,2,0,2,y,y,y,y,y,2019-11-06 10:20,y,,,y,m,m,y,,,y,,,2019-09-17,,,mang122,2019-09-10,mang122,2025-03-05,44,172250,,,n,2019-09-10,2019-09-17,,,y,y,n,n,0,,,m,m,,,,,,,,,n,n
CONT_000000000501336,음식점,운해횟집,국문,운해횟집,,제주특별자치도 서귀포시 대포동 2367-1,제주특별자치도 서귀포시 대포로 174,33.238829,126.439408,y,,blog.naver.com/unhae6000,3435,,1,0,9,0,0,y,y,n,y,y,2019-10-04 17:58,y,y,y,y,y,y,y,n,y,y,y,y,2019-10-04,2019-10-04,2019-10-04,anonymous,2016-05-30,anonymous,2025-03-04,1,6873,9232446,,n,2016-05-30,2016-05-30,2016-05-30,2016-05-30,y,y,y,y,,y,,y,,n,,y,,,,2022-04-16,,y,
CONT_000000000501344,음식점,자리돔횟집,국문,자리돔횟집,,제주특별자치도 서귀포시 동홍동로 7,제주특별자치도 서귀포시 동홍동로 7,33.25554,126.57477,y,,,4157,,0,0,13,0,0,y,y,y,y,y,2019-10-14 15:18,y,y,y,y,y,y,y,y,y,y,y,y,2019-10-14,2019-10-14,2019-10-14,anonymous,2016-05-30,anonymous,2025-03-02,1,8314,9152634,,n,2016-05-30,2016-05-30,2016-05-30,2016-05-30,y,y,y,y,,y,,y,,y,,y,,,,2022-12-07,,y,
CNTS_300000000012738,테마여행,2023년 가을 놓치지 말아야 할 제주관광 10선  <제주 가을에 취하다>,국문,2023년 가을 놓치지 말아야 할 제주관광 10선  <제주 가을에 취하다>,,,,,,y,4,,13902,,2,1,1,0,1,y,y,y,y,y,2023-08-27 8:50,y,y,y,y,y,y,y,y,y,y,y,y,2023-09-06,2023-09-06,2023-09-06,jto0900045,2023-08-27,jto0900045,2025-03-05,25,27815,,,n,2023-08-27,2023-09-06,2023-09-06,2023-09-06,y,y,y,y,0,y,y,y,y,y,y,y,y,,2023-10-16,2023-09-07,2023-10-16,y,y
CNTS_000000000021587,테마여행,MADE IN JEJU <제주 동북권 공방여행>,국문,MADE IN JEJU <제주 동북권 공방여행>,,제주특별자치도 제주시 조천읍 선흘리 532,제주특별자치도 제주시 조천읍 선교로 457-43,33.465134,126.71563,y,,,3904,,0,0,2,0,0,y,y,n,y,y,,y,y,y,m,m,m,y,y,y,y,y,y,,,,anonymous,2017-01-01,anonymous,2022-03-15,0,7808,,63341,n,2017-01-01,2017-01-01,2017-01-01,2017-01-01,n,n,n,n,,,,,,,,,,,,,,,
CNTS_000000000019999,관광지,제주유람선,국문,제주유람선,,제주특별자치도 제주시 도두일동 2614-5,제주특별자치도 제주시 도공로 2,33.5061061,126.4650426,y,5,,6164,,0,1,22,0,0,y,y,n,y,y,2019-07-12 17:31,y,y,y,y,y,y,n,n,n,y,y,y,2019-07-23,2019-07-23,2019-07-23,anonymous,2016-10-31,anonymous,2025-03-05,0,12333,,,n,2016-10-31,2016-10-31,2016-10-31,2016-10-31,y,y,y,y,1,y,,y,,n,,y,,2019-07-23,,2019-07-23,,y,
CNTS_300000000012747,관광지,해맑은동물병원,국문,해맑은동물병원,,제주특별자치도 제주시 노형동 759,제주특별자치도 제주시 한라대학로 75,33.4765347,126.4783856,y,0,,444,,0,0,0,0,0,y,y,y,y,y,2023-09-05 11:33,,,,m,m,m,,,,,,,,,,olaolab00,2023-08-29,olaolab00,2025-03-04,0,888,,,n,2023-08-29,,,,y,n,n,n,0,,,m,m,,,,,,,,,n,n
CONT_000000000500901,숙박,베이힐 풀앤빌라,국문,베이힐 풀앤빌라,,제주특별자치도 서귀포시 하예동 1888,제주특별자치도 서귀포시 예래로 424,33.24512,126.38528,y,5,,10949,,1,1,9,0,0,y,y,y,y,y,2019-06-19 15:33,y,y,y,y,y,y,y,y,y,y,y,y,2019-01-28,2019-01-28,2019-01-28,anonymous,2016-05-30,anonymous,2025-03-05,3,21906,7000961,63538,n,2016-05-30,2016-05-30,2016-05-30,2016-05-30,y,n,n,n,1,y,,y,,y,,y,,,,2022-12-05,,n,
CNTS_000000000019090,관광지,묵리해안쉼터,국문,묵리해안쉼터,,제주특별자치도 제주시 추자면 묵리 731-4,제주특별자치도 제주시 추자면 추자로 376-6,33.9449269,126.312162,y,,,3841,,0,0,13,0,0,y,y,y,y,y,2019-09-06 14:34,y,y,y,y,y,y,y,y,y,y,y,y,2019-09-06,2019-09-06,2019-09-06,anonymous,2016-10-19,anonymous,2025-03-02,0,7682,,,n,2016-10-19,2016-10-19,2016-10-19,2016-10-19,y,y,y,y,,y,,y,,y,,y,,2019-09-06,,2019-09-06,,y,
CONT_000000000501093,숙박,파도봐 펜션,국문,파도봐 펜션,,제주특별자치도 서귀포시 남원읍 남원리 93-11,제주특별자치도 서귀포시 남원읍 남태해안로 141,33.28853,126.70413,y,,www.padobwa.com,1240,,0,0,0,0,0,y,y,n,y,y,2019-06-19 14:49,y,y,y,y,y,y,y,y,y,y,y,y,,,,anonymous,2016-05-30,anonymous,2025-02-14,0,2480,8673264,63621,n,2016-05-30,2016-05-30,2016-05-30,2016-05-30,n,n,n,n,,y,,y,,y,,y,,,,2019-02-25,,n,
CNTS_300000000012742,관광지,아라i동물병원,국문,아라i동물병원,,제주특별자치도 제주시 아라일동 6114-14,제주특별자치도 제주시 인다6길 45,33.4751932,126.5480201,y,0,http://www.instagram.com/arai_veterinary_clinic,448,,0,0,0,0,0,y,y,y,y,y,2023-08-29 16:35,,,,m,m,m,,,,,,,,,,olaolab00,2023-08-29,olaolab00,2025-03-01,1,896,,,n,2023-08-29,,,,y,n,n,n,0,,,m,m,,,,,,,,,n,n
CNTS_300000000012743,관광지,이루다동물병원,국문,이루다동물병원,,제주특별자치도 제주시 도련일동 1917-1,제주특별자치도 제주시 건주로3길 19,33.5167642,126.581414,y,0,http://www.instagram.com/iruda_jeju,322,,0,0,0,0,0,y,y,y,y,y,2023-08-29 16:35,,,,m,m,m,,,,,,,,,,olaolab00,2023-08-29,olaolab00,2025-02-27,0,644,,,n,2023-08-29,,,,y,n,n,n,0,,,m,m,,,,,,,,,n,n
CONT_000000000501175,음식점,금문도,국문,금문도,,제주특별자치도 제주시 원노형로 36 (노형동),제주특별자치도 제주시 원노형로 36,33.485535,126.4847,y,,,1450,,0,0,0,0,0,y,y,n,y,y,,y,y,y,y,y,y,n,n,n,y,y,y,,,,anonymous,2016-05-30,anonymous,2022-07-06,0,2900,9061372,,n,2016-05-30,2016-05-30,2016-05-30,2016-05-30,n,n,n,n,,y,,y,,n,,y,,,,2019-02-25,,n,
CNTS_200000000013327,음식점,시니어손맛 아리랑,국문,시니어손맛 아리랑,,제주특별자치도 제주시 이도이동 1176-118,제주특별자치도 제주시 동광로2길 7,33.500671,126.530808,y,0,,692,,3,0,5,0,0,y,y,y,y,y,2022-04-28 13:14,,,,m,m,m,,,,,,,,,,iamsunon,2022-04-28,iamsunon,2025-03-04,3,1393,,,n,2022-04-28,,,,y,n,n,n,0,,,m,m,,,,,,,,,n,n
CNTS_000000000021479,숙박,달집게스트하우스,국문,달집게스트하우스,,제주특별자치도 제주시 구좌읍 종달리 953,제주특별자치도 제주시 구좌읍 종달논길 32-3,33.493687,126.901054,y,,,2535,,0,0,1,0,0,y,y,y,y,y,2019-12-03 17:25,y,y,y,y,y,y,y,y,y,y,y,y,2019-12-03,2019-12-03,2019-12-03,anonymous,2016-12-28,anonymous,2025-02-28,0,5070,9608730,63364,n,2016-12-28,2016-12-28,2016-12-28,2016-12-28,y,y,y,y,,y,,y,,y,,y,,2019-12-03,,2019-12-03,,y,
CONT_000000000501252,음식점,바다풍경횟집,국문,바다풍경횟집,,제주특별자치도 제주시 용담삼동 513-2,제주특별자치도 제주시 서해안로 654,33.5161862,126.5069194,y,5,,11571,,1,5,90,0,0,y,y,y,y,y,2019-09-23 14:24,y,y,y,y,y,y,y,y,y,y,y,y,2019-09-23,2019-09-23,2019-09-23,anonymous,2016-05-30,anonymous,2025-03-05,6,23170,9262711,,n,2016-05-30,2016-05-30,2016-05-30,2016-05-30,y,y,y,y,4,y,,y,,y,,y,,2019-09-23,,2019-09-23,,y,
CNTS_200000000013331,음식점,비양도식당,국문,비양도식당,,제주특별자치도 제주시 한림읍 금능리 1763-1,제주특별자치도 제주시 한림읍 한림로 167,33.3860678,126.2258574,y,0,,2025,,0,0,10,0,0,y,y,y,y,y,2022-04-28 13:26,,,,m,m,m,,,,,,,,,,iamsunon,2022-04-28,iamsunon,2025-03-04,1,4050,,,n,2022-04-28,,,,y,n,n,n,0,,,m,m,,,,,,,,,n,n
CONT_000000000500435,관광지,엉알해안,국문,엉알해안,,제주특별자치도 제주시 한경면 고산리 3427-33,제주특별자치도 제주시 한경면 고산리 3427-33,33.29957022,126.1674244,y,5,,10975,,2,4,56,0,0,y,y,y,y,y,2019-07-22 14:38,y,y,y,y,y,y,y,y,y,y,y,y,2019-07-22,2019-07-22,2019-07-22,anonymous,2016-05-30,anonymous,2025-03-05,0,21976,,,n,2016-05-30,2016-05-30,2016-05-30,2016-05-30,y,y,y,y,7,y,,y,,y,,y,,,,2022-11-29,,y,
CNTS_200000000013387,테마여행,꼭 경험해야 할 제주명품 - 제주의 7대 건축,국문,꼭 경험해야 할 제주명품 - 제주의 7대 건축,,,,,,y,0,,5281,,0,0,1,0,0,y,y,y,y,y,2022-05-09 13:27,,,,m,m,m,,,,,,,,,,iamsunon,2022-05-09,iamsunon,2025-03-05,1,10562,,,n,2022-05-09,,,,y,n,n,n,0,,,m,m,,,,,,,,,n,n
CONT_000000000500289,관광지,산세미오름 (삼산이오름),국문,산세미오름 (삼산이오름),,제주특별자치도 제주시 애월읍 고성리 126,제주특별자치도 제주시 애월읍 고성남길 29-11,33.4108019,126.433164,y,,,1454,,0,0,0,0,0,y,y,n,y,y,2019-07-12 13:09,y,y,y,y,y,y,n,n,n,y,y,y,2019-07-22,2019-07-22,2019-07-22,anonymous,2016-05-30,anonymous,2022-07-06,0,2908,,,n,2016-05-30,2016-05-30,2016-05-30,2016-05-30,y,y,y,y,,y,,y,,n,,y,,2019-07-22,,2019-07-22,,y,
CNTS_000000000021282,숙박,디스이즈핫,국문,디스이즈핫,,제주특별자치도 제주시 구좌읍 하도리 59-1,제주특별자치도 제주시 구좌읍 하도15길 153-5,33.5131782,126.8973861,y,,,1916,,0,0,0,0,0,y,y,y,y,y,2019-06-24 11:14,y,y,y,m,m,m,y,y,y,y,y,y,,,,anonymous,2016-12-23,anonymous,2025-02-27,0,3832,10049614,63363,n,2016-12-23,2016-12-23,2016-12-23,2016-12-23,n,n,n,n,,,,,,,,,,,,,,,
CNTS_000000000021951,축제/행사,제주 해비치 아트페스티벌,국문,제주 해비치 아트페스티벌,,제주특별자치도 서귀포시 표선면 표선리 40-69,제주특별자치도 서귀포시 표선면 민속해안로 537,33.3234478,126.8447796,y,,,5786,,0,0,0,0,0,y,y,n,y,y,2019-04-08 15:15,y,y,y,y,m,y,n,n,n,y,y,y,2019-04-09,,2019-04-09,anonymous,2017-05-23,anonymous,2023-11-01,3,11572,,63629,n,2017-05-23,2017-05-23,2017-05-23,2019-04-09,y,n,n,y,,y,y,m,m,n,y,y,y,,,2019-02-25,2019-04-09,n,y
CNTS_000000000022025,쇼핑,우도아이,국문,우도아이,,제주특별자치도 제주시 우도면 연평리 1290-6,제주특별자치도 제주시 우도면 우도해안길 814,33.5033191,126.9556775,y,5,,3869,,1,1,7,0,0,y,y,y,y,y,2019-11-13 17:31,y,y,y,m,m,m,y,y,y,y,y,y,,,,anonymous,2017-06-23,anonymous,2025-03-05,0,7746,,,n,2017-06-23,2017-06-23,2017-06-23,2017-06-23,y,n,n,n,2,,,,,,,,,,,,,,
CNTS_000000000019423,음식점,두가시영,국문,두가시가든,,제주특별자치도 서귀포시 표선면 하천리 153-1,제주특별자치도 서귀포시 표선면 하천달산로9번길 98,33.3374683,126.8423582,y,,,2381,,0,0,2,0,0,y,y,y,y,y,,y,y,y,y,y,y,y,y,y,y,y,y,,,,anonymous,2016-10-24,anonymous,2025-02-28,0,4762,,63627,n,2016-10-24,2016-10-24,2016-10-24,2016-10-24,n,n,n,n,,y,,y,,y,,y,,,,2022-10-17,,n,
CNTS_000000000022701,음식점,달리맨,국문,달리맨,,제주특별자치도 서귀포시 성산읍 고성리 571,제주특별자치도 서귀포시 성산읍 환해장성로 950,33.4445754,126.9095025,y,,,1702,,0,0,8,0,0,y,y,n,y,y,2019-09-23 10:01,y,y,y,y,m,m,n,y,y,y,y,y,2019-09-23,,,anonymous,2017-11-06,anonymous,2023-01-25,2,3404,,,n,2017-11-06,2018-12-10,2017-11-06,2017-11-06,y,y,n,n,,,,,,,,,,,,,,,
CNTS_000000000022702,음식점,알마니,국문,알마니,,제주특별자치도 제주시 구좌읍 세화리 1476-2,제주특별자치도 제주시 구좌읍 해녀박물관길 37,33.5242801,126.8619345,y,,,936,,0,0,1,0,0,y,y,n,y,y,2019-09-23 10:24,y,y,y,m,m,m,y,y,y,y,y,y,,,,anonymous,2017-11-06,anonymous,2023-07-11,2,1872,,,n,2017-11-06,2017-11-06,2017-11-06,2017-11-06,y,n,n,n,,,,,,,,,,,,,,,
CNTS_300000000012749,관광지,조은동물병원,국문,조은동물병원,,제주특별자치도 서귀포시 서귀동 270-7,제주특별자치도 서귀포시 동문로 40,33.2503019,126.564913,y,0,,482,,0,0,0,0,0,y,y,y,y,y,2023-09-05 11:32,,,,m,m,m,,,,,,,,,,olaolab00,2023-08-29,olaolab00,2025-03-04,0,964,,,n,2023-08-29,,,,y,n,n,n,0,,,m,m,,,,,,,,,n,n
CNTS_000000000021301,쇼핑,아코하루,국문,아코하루,,제주특별자치도 제주시 도련일동 1731-13,제주특별자치도 제주시 매촌2길 80,33.5096625,126.5904168,y,,,1998,,0,0,3,0,0,y,y,y,y,y,2019-11-20 13:16,y,y,y,m,m,m,y,y,y,y,y,y,,,,anonymous,2016-12-24,anonymous,2025-03-04,0,3996,,63333,n,2016-12-24,2016-12-24,2016-12-24,2016-12-24,y,n,n,n,,,,,,,,,,,,,,,
CNTS_000000000019973,관광지,한라산영실코스,국문,한라산영실코스,,제주특별자치도 서귀포시 하원동 산 1-1,제주특별자치도 서귀포시 영실로 246,33.3402,126.47921,y,5,,269820,,36,129,634,0,12,y,y,y,y,y,2019-07-12 14:27,y,y,y,y,y,y,y,y,y,y,y,y,2019-07-22,2019-07-22,2019-07-22,anonymous,2016-10-31,anonymous,2025-03-05,108,540393,9736427,63554,n,2016-10-31,2016-10-31,2016-10-31,2016-10-31,y,y,y,y,295,y,y,y,y,y,y,y,y,2019-07-22,2019-07-22,2019-07-22,2019-07-22,y,y
CNTS_300000000012753,숙박,라라게스트하우스,국문,라라게스트하우스,,제주특별자치도 제주시 조천읍 교래리 188-4,제주특별자치도 제주시 조천읍 교래4길 74,33.4180631,126.6534847,y,0,,841,,0,0,1,0,0,y,y,y,y,y,2023-09-01 18:04,,,,m,m,m,,,,,,,,,,rlaalr83,2023-09-01,rlaalr83,2025-03-04,1,1682,,,n,2023-09-01,,,,y,n,n,n,0,,,m,m,,,,,,,,,n,n
CNTS_300000000012754,음식점,워터쉐드카페,국문,워터쉐드카페,,제주특별자치도 제주시 조천읍 교래리 188-4,제주특별자치도 제주시 조천읍 교래4길 74,33.4180631,126.6534847,y,0,,551,,0,0,1,0,0,y,y,y,y,y,2023-09-05 11:44,,,,m,m,m,,,,,,,,,,changwon1031,2023-09-04,changwon1031,2025-03-05,0,1102,,,n,2023-09-04,,,,y,n,n,n,0,,,m,m,,,,,,,,,n,n
CNTS_000000000020084,관광지,홍가시나무길(탐라대),국문,홍가시나무길(탐라대),,제주특별자치도 서귀포시 하원동 산 70,제주특별자치도 서귀포시 1100로 506,33.276367,126.44766,y,5,,4029,,0,10,23,0,0,y,y,n,m,y,,y,y,y,m,m,m,n,n,n,y,y,y,,,,anonymous,2016-11-07,anonymous,2025-03-05,0,8058,,63553,n,2016-11-07,2016-11-07,2016-11-07,2016-11-07,n,n,n,n,13,y,,m,,n,,y,,,,2019-02-25,,n,
CNTS_000000000020636,숙박,제주에살다,국문,제주에살다,,제주특별자치도 서귀포시 성산읍 온평리 1118-2,제주특별자치도 서귀포시 성산읍 온평포구로62번길 37,33.399765,126.90398,y,4,,2270,,0,2,5,0,0,y,y,y,y,y,2019-12-04 9:50,y,y,y,m,m,m,y,y,y,y,y,y,,,,anonymous,2016-11-24,anonymous,2025-03-05,0,4550,,63633,n,2016-11-24,2016-11-24,2016-11-24,2016-11-24,y,n,n,n,3,,,,,,,,,,,,,,
CONT_000000000501303,음식점,앞돈지,국문,앞돈지,,제주특별자치도 제주시 중앙로1길 28(건입동),제주특별자치도 제주시 중앙로1길 28(건입동),33.516056,126.52759,y,,,1345,,0,0,2,0,0,y,y,y,y,y,2019-09-10 14:45,y,y,y,y,y,y,n,n,n,y,y,y,,,,anonymous,2016-05-30,anonymous,2025-03-04,0,2690,8943836,,n,2016-05-30,2016-05-30,2016-05-30,2016-05-30,y,n,n,n,,y,,y,,n,,y,,,,2019-02-25,,n,
CNTS_200000000014011,축제/행사,제주 에코뮤직페스티벌,국문,제주 에코뮤직페스티벌,,제주특별자치도 제주시 조천읍 교래리 산 95,제주특별자치도 제주시 조천읍 남조로 2023,33.4180631,126.6534847,y,0,https://instagram.com/jeju_ecomusicfestival,5059,,1,0,1,0,0,y,y,n,y,y,2022-10-25 14:19,,,,m,m,m,,,,,,,,,,iamsunon,2022-10-25,iamsunon,2024-05-31,8,10121,,,n,2022-10-25,,,,y,n,n,n,0,,,m,m,,,,,,,,,n,n
CNTS_000000000019610,숙박,제주올레펜션,국문,제주올레펜션,,제주특별자치도 서귀포시 남원읍 신흥리 2098,제주특별자치도 서귀포시 남원읍 원님로 473,33.345985,126.74921,y,,,663,,0,0,0,0,0,y,y,y,m,y,,y,y,y,m,m,m,y,y,y,y,y,y,,,,anonymous,2016-10-25,anonymous,2022-02-14,1,1326,,63616,n,2016-10-25,2016-10-25,2016-10-25,2016-10-25,n,n,n,n,,y,,m,,y,,y,,,,2019-02-25,,n,
CONT_000000000500304,관광지,삼형제오름,국문,삼형제오름,,제주특별자치도 제주시 애월읍 광령리 4-1,제주특별자치도 제주시 애월읍 평화로 2901-1,33.35831755,126.4522552,y,,,1226,,0,0,2,0,0,y,y,n,y,y,2019-07-12 15:08,y,y,y,y,y,y,n,n,n,y,y,y,2019-07-23,2019-07-23,2019-07-23,anonymous,2016-05-30,anonymous,2022-07-06,0,2452,,,n,2016-05-30,2016-05-30,2016-05-30,2016-05-30,y,y,y,y,,y,,y,,n,,y,,2019-07-23,,2019-07-23,,y,
CNTS_000000000021880,테마여행,"숨은 매력 가득한 바다 마을 <김녕, 돈(豚)의 맛>",국문,"숨은 매력 가득한 바다 마을 <김녕, 돈(豚)의 맛>",,,,0,0,y,,,10943,,3,0,7,0,0,y,y,y,y,y,,y,y,y,m,m,m,y,y,y,y,y,y,,,,anonymous,2017-03-28,anonymous,2025-03-04,0,21895,,,n,2017-03-28,2017-03-28,2017-03-28,2017-03-28,n,n,n,n,,,,,,,,,,,,,,,
CNTS_000000000022082,관광지,제주불빛정원 테마파크,국문,제주불빛정원 테마파크,,제주특별자치도 제주시 애월읍 유수암리 1083,제주특별자치도 제주시 애월읍 평화로 2346,33.4222395,126.4092532,y,0,,35639,,7,0,310,0,0,y,y,y,y,y,2019-07-17 16:48,y,y,y,m,m,y,y,y,y,y,y,y,,,2019-07-17,anonymous,2017-07-05,anonymous,2025-03-04,31,71299,12621171,,n,2017-07-05,2017-07-05,2017-07-05,2018-12-20,y,n,n,y,,,,,,,,,,,,,,,
CNTS_000000000021496,음식점,곽지BAR다,국문,곽지BAR다,,제주특별자치도 제주시 애월읍 곽지리 1581-22,제주특별자치도 제주시 애월읍 곽지1길 18,33.44777,126.30465,y,,,1990,,0,0,6,0,0,y,y,y,y,y,2019-09-23 11:25,y,y,y,m,m,m,y,y,y,y,y,y,,,,anonymous,2016-12-29,anonymous,2025-03-03,0,3980,,63034,n,2016-12-29,2016-12-29,2016-12-29,2016-12-29,y,n,n,n,,,,,,,,,,,,,,,
CNTS_000000000022125,음식점,넘버 138,국문,넘버 138,,제주특별자치도 서귀포시 하효동 996-1,제주특별자치도 서귀포시 쇠소깍로 138,33.25168,126.62265,y,,,2557,,1,0,7,0,0,y,y,y,y,y,2019-09-23 10:40,y,y,y,y,y,y,y,y,y,y,y,y,2019-09-23,2019-09-23,2019-09-23,anonymous,2017-07-11,anonymous,2025-03-04,1,5117,,63600,n,2017-07-11,2017-07-11,2017-07-11,2017-07-11,y,y,y,y,,y,,y,,y,,y,,2019-09-23,,2019-09-23,,y,
CNTS_200000000013418,축제/행사,"제3회 웰니스 숲힐링 축제 - 숲, 상상 그 이상의 미래",국문,"제3회 웰니스 숲힐링 축제 - 숲, 상상 그 이상의 미래",,제주특별자치도 서귀포시 호근동 산 1,제주특별자치도 서귀포시 산록남로 2271,33.3025489,126.5245747,y,0,,1976,,0,0,0,0,0,y,y,y,y,y,2022-05-17 14:38,,,,m,m,m,,,,,,,,,,iamsunon,2022-05-17,iamsunon,2025-03-02,0,3952,,,n,2022-05-17,,,,y,n,n,n,0,,,m,m,,,,,,,,,n,n
CNTS_200000000013419,축제/행사, 한개의 별을 노래하자(제2회 웰니스 숲힐링 축제),국문, 한개의 별을 노래하자(제2회 웰니스 숲힐링 축제),,제주특별자치도 서귀포시 호근동 산 1,제주특별자치도 서귀포시 산록남로 2271,33.3040063,126.5232026,y,0,,427,,0,0,0,0,0,y,y,n,y,y,2022-05-17 14:46,,,,m,m,m,,,,,,,,,,iamsunon,2022-05-17,iamsunon,2023-05-27,0,854,,,n,2022-05-17,,,,y,n,n,n,0,,,m,m,,,,,,,,,n,n
CNTS_200000000013420,축제/행사,에그박사와 함께하는 곤충탐험대(제2회 웰니스 숲힐링 축제),국문,에그박사와 함께하는 곤충탐험대(제2회 웰니스 숲힐링 축제),,제주특별자치도 서귀포시 호근동 산 1,제주특별자치도 서귀포시 산록남로 2271,33.3040063,126.5232026,y,0,,616,,0,0,0,0,0,y,y,n,y,y,2022-05-17 14:53,,,,m,m,m,,,,,,,,,,iamsunon,2022-05-17,iamsunon,2023-05-26,1,1232,,,n,2022-05-17,,,,y,n,n,n,0,,,m,m,,,,,,,,,n,n
CONT_000000000500950,숙박,스톤성민박,국문,스톤성민박,,제주특별자치도 서귀포시 색달동 2366,제주특별자치도 서귀포시 일주서로 866,33.25879,126.418106,y,,,1539,,0,0,0,0,0,y,y,y,y,y,2019-12-04 10:34,y,y,y,y,y,y,y,y,y,y,y,y,2019-12-04,2019-12-04,2019-12-04,anonymous,2016-05-30,anonymous,2025-02-19,1,3078,6998786,,n,2016-05-30,2016-05-30,2016-05-30,2016-05-30,y,y,y,y,,y,,y,,y,,y,,,,2022-12-05,,y,
CNTS_200000000009202,테마여행,공항 가기 전 짜투리 시간도 알차게! <제주시 숲길>,국문,공항 가기 전 짜투리 시간도 알차게! <제주시 숲길>,,,,,,y,0,,15048,,1,0,1,0,0,y,y,y,y,y,2019-12-23 9:19,y,y,,y,y,m,y,y,,y,y,,2020-03-03,2020-03-05,,romiae,2019-09-10,romiae,2025-03-05,1,30099,,,n,2019-09-10,2020-03-03,2020-03-05,,y,y,y,n,0,y,y,y,y,y,y,y,y,,,2022-11-16,2022-11-16,y,y
